,District,Latitude,longitude,ACTIVE CASES,CONFIRMED CASES,DECEASED CASES,RECOVERED CASES
0,Baksa,26.6935,91.5984,235,687,5,447
1,Barpeta,26.34142215,91.01674328474073,93,1121,4,1024
2,Biswanath,26.7773957,93.25694367444689,88,467,0,379
3,Bongaigaon,26.4800126,90.5580387,466,1303,3,834
4,Cachar,24.758639950000003,92.88166475768219,4585,6111,28,1498
5,Charaideo,27.06971635,95.06426298389661,5,113,3,105
6,Chirang,26.6464231,90.62415698729875,59,280,2,219
7,Darrang,26.75,92.5,225,1967,12,1730
8,Dhemaji,27.466831499999998,94.51786508708852,323,765,2,440
9,Dhubri,26.01894625,89.94188952461522,504,1723,4,1215
10,Dibrugarh,27.4844597,94.9019447,5623,8085,53,2409
11,Dima Hasao,25.400362549999997,93.07522922678905,38,237,0,199
12,Goalpara,26.1783623,90.6226683,38,658,1,568
13,Golaghat,26.40490095,94.03209112120626,954,2620,10,1656
14,Hailakandi,24.68845365,92.57381528240944,509,1632,7,1116
15,Hojai,26.009390850000003,92.84879014262606,478,1646,8,1160
16,Jorhat,26.7577925,94.2079645,4119,5888,17,1752
17,Kamrup,26.12755515,91.2998714797357,2496,4590,20,2074
18,Kamrup Metropolitan,26.13526375,91.86167062524619,22442,37117,76,14599
19,Karbi Anglong,26.0,93.5,72,632,8,552
20,Karimganj,24.8483482,92.33221292310328,222,1200,23,955
21,Kokrajhar,26.58687695,90.29293105124796,47,408,8,353
22,Lakhimpur,27.985060150000002,80.75384538357649,1010,2147,2,1135
23,Majuli,27.021952849999998,94.32742302965544,84,165,1,80
24,Morigaon,26.2578325,92.3419427,79,638,2,557
25,Nagaon,26.30414915,92.71605974430346,1999,4515,10,2506
26,Nalbari,26.42386165,91.4512275462117,111,948,9,828
27,Sivasagar,26.9834936,94.6394226,46,529,10,473
28,Sonitpur,26.767770749999997,92.70140885850532,620,2351,4,1727
29,South Salmara Mankachar,25.7604472,89.8928061082699,4,51,0,47
30,Tinsukia,27.52016575,95.5306347312879,1545,3366,23,1798
31,Udalguri,26.776480300000003,92.10537533897156,88,758,4,666
32,West Karbi Anglong,25.85291415,92.58756812404593,1,39,1,37
33,Araria,26.26498795,87.37162648106798,790,4257,14,3453
34,Arwal,25.180777149999997,84.65920203021554,129,1525,7,1389
35,Aurangabad,19.877263,75.3390241,348,3266,8,2910
36,Banka,24.8655681,86.87278642295597,226,1982,8,1748
37,Begusarai,25.5127194,86.09057109140021,257,5847,23,5567
38,Bhagalpur,25.28669805,87.13225355111148,624,6577,53,5900
39,Bhojpur,25.25,84.25,170,3855,29,3656
40,Buxar,25.562071500000002,84.01567204651289,193,3199,10,2996
41,Darbhanga,26.08314325,86.03257096612822,368,2780,20,2392
42,East Champaran,26.6460551,84.9135447,520,5792,33,5239
43,Gaya,24.7964355,85.0079563,365,5132,44,4723
44,Gopalganj,26.4207265,84.37406407415165,519,3468,2,2947
45,Jamui,24.967852049999998,86.17351147289283,175,1850,6,1669
46,Jehanabad,25.15247135,85.00687848982191,222,2665,8,2435
47,Kaimur,24.974864349999997,83.57643904700731,120,1458,9,1329
48,Katihar,25.560900349999997,87.64765353997149,415,5166,11,4740
49,Khagaria,25.4916868,86.69910848212217,160,2508,9,2339
50,Kishanganj,26.29863795,87.95314810923409,289,2588,7,2292
51,Lakhisarai,25.167702900000002,86.05935924304018,337,2209,6,1866
52,Madhepura,25.9259562,86.82042961035677,345,2611,9,2257
53,Madhubani,26.350071999999997,86.22914688962271,461,5372,16,4895
54,Munger,25.22081165,86.51720367235285,165,2602,36,2401
55,Muzaffarpur,26.1486581,85.34001282479626,701,7043,29,6313
56,Nalanda,25.1364914,85.44365464855682,384,5088,37,4667
57,Nawada,24.818123999999997,85.5185562336921,240,2443,16,2187
58,Patna,25.6093239,85.1235252,1804,23993,188,22001
59,Purnia,25.7773601,87.4731227,670,5054,6,4378
60,Rohtas,24.93928775,84.01945448852067,306,4842,33,4503
61,Saharsa,25.83264165,86.61489283342814,554,4054,7,3493
62,Samastipur,25.7744929,85.86626813370123,309,3816,26,3481
63,Saran,25.90835495,84.78074760594323,472,4937,26,4439
64,Sheikhpura,25.12635425,85.81510620944194,162,1978,5,1811
65,Sheohar,26.49436945,85.27280559513999,92,929,1,836
66,Sitamarhi,26.5876547,85.5056744,260,3095,10,2825
67,Siwan,26.1310043,84.39125660595198,257,3306,19,3030
68,Supaul,23.7337,69.8597,407,3104,8,2689
69,Vaishali,25.75,85.416667,243,3799,27,3528
70,West Champaran,26.6919717,84.5796928,454,4199,16,3729
71,Chandigarh,30.7194022,76.7646552,2728,7991,90,5170
72,Balod,20.73218365,81.14335738365043,547,1052,1,504
73,Baloda Bazar,21.572645950000002,82.43670691696435,572,1586,12,1002
74,Balrampur,27.4504805,82.39541774073132,234,579,1,344
76,Bastar,19.11912825,81.82918648971713,596,1464,5,863
77,Bijapur,18.769041350000002,80.74151192966231,369,896,6,521
78,Bilaspur,28.8680526,79.29838501460121,2848,4452,59,1545
80,Dhamtari,20.7083903,81.5485253,532,939,2,405
81,Durg,21.19903535,81.3979545573657,3256,6164,55,2853
82,Gariaband,20.42857015,82.24698984817437,278,743,6,459
83,Janjgir Champa,21.967126399999998,82.6647242496104,1130,2344,15,1199
84,Jashpur,22.76678355,83.95304518953317,225,707,2,480
86,Kondagaon,19.5885769,81.6628742,307,672,1,364
87,Korba,22.51976955,82.62951462416818,500,1456,5,951
88,Koriya,23.431414349999997,82.31393341197054,462,870,7,401
89,Mahasamund,21.1882332,82.48484762499999,779,1317,15,523
90,Mungeli,22.0661098,81.6874282,415,731,0,316
91,Narayanpur,26.96392335,93.82558573585581,139,764,0,625
92,Raigarh,22.5,83.5,1583,3537,26,1928
93,Raipur,21.2379469,81.6336833,11002,21850,261,10587
94,Rajnandgaon,20.9727404,80.69155548263583,2570,5025,32,2423
95,Sukma,18.26654225,81.29252341475065,346,918,2,570
96,Surajpur,23.35151515,82.97290272665015,433,804,4,367
97,Surguja,22.94941835,83.1655491457949,478,1280,8,794
98,Uttar Bastar Kanker,20.1270026,80.98109349472911,439,1068,6,623
99,Gaurela Pendra Marwahi,23.0043821,82.0572281,122,158,0,36
100,Central Delhi,28.69854835,77.21939141568413,184,184,0,0
101,East Delhi,28.6204767,77.30918071344418,38,38,0,0
102,New Delhi,28.6138954,77.2090057,37,37,0,0
103,North Delhi,28.6138954,77.2090057,60,60,0,0
104,North East Delhi,28.72330795,77.26685650778668,25,25,0,0
105,North West Delhi,28.6138954,77.2090057,31,32,1,0
106,Shahdara,28.6733333,77.2890248,48,48,0,0
107,South Delhi,28.485169399999997,77.19637972381611,70,70,0,0
108,South East Delhi,28.5444411,77.27287301731174,130,130,0,0
109,South West Delhi,28.58644805,76.97915298462692,42,42,0,0
110,West Delhi,28.6479519,77.08556541088615,122,122,0,0
111,Dadra and Nagar Haveli,20.2735169,73.0043578,150,1323,1,1167
112,Daman,20.42000485,72.86376290300566,54,1138,1,1070
113,Diu,20.7137783,70.9853635,26,260,0,223
114,North Goa,15.60444125,74.00172406307475,1639,2668,65,964
115,South Goa,15.21961365,74.1152813019196,1978,3511,126,1407
116,Ahmedabad,23.0216238,72.5797068,4245,33725,1758,27722
117,Amreli,20.866667,70.75,368,1636,23,1245
118,Anand,22.5584995,72.9625629,97,932,16,819
119,Aravalli,16.6299629,81.6057455,109,492,24,359
120,Banaskantha,24.172056,72.431134,-11,1393,20,1384
121,Bharuch,21.75,73.0,221,1858,15,1622
122,Bhavnagar,21.7718836,72.1416449,415,3472,50,3007
123,Botad,22.1686,71.6685,133,609,5,471
124,Chhota Udaipur,22.3048651,74.0126114,86,410,2,322
125,Dahod,22.8358542,74.2556782,320,1426,6,1100
126,Dang,20.8254,73.7007,26,78,0,52
127,Devbhumi Dwarka,22.2471009,68.9742446,36,419,4,379
128,Gandhinagar,23.2232877,72.6492267,472,2928,63,2393
129,Gir Somnath,20.8907001,70.4025266,171,1164,16,977
130,Jamnagar,22.4732415,70.0552102,331,4168,29,3808
131,Junagadh,21.5174104,70.4642754,292,2191,29,1870
132,Kheda,22.75,72.833333,72,1098,16,1010
133,Kutch,23.7337,69.8597,407,1603,31,1165
134,Mahisagar,23.1916967,73.6626352964019,108,737,3,626
135,Mehsana,23.588,72.3693,608,1938,29,1301
136,Morbi,22.8176662,70.8345928,281,1250,15,954
137,Narmada,22.6737188,77.5795269,104,773,0,669
138,Navsari,20.952407,72.9323831,121,1038,6,911
139,Panchmahal,28.6271026,77.31016493548915,372,1854,17,1465
140,Patan,23.77405735,71.68373465668734,130,1312,39,1143
141,Porbandar,21.6409,69.611,15,375,4,356
142,Rajkot,22.3051991,70.8028335,2108,6697,113,4476
143,Sabarkantha,24.0294885,73.0459884,200,865,10,655
144,Surat,21.1702,72.8311,2580,24266,692,20994
145,Surendranagar,22.75,71.666667,326,1429,11,1092
146,Tapi,21.1787195,75.44245,18,462,4,440
147,Vadodara,22.2973142,73.1942567,1471,9818,148,8199
148,Valsad,20.4324018,73.1411715553577,82,1082,10,990
149,Bilaspur,28.8680526,79.29838501460121,194,515,1,320
150,Chamba,32.5534,76.1258,183,632,5,440
151,Hamirpur,25.75,80.0,169,734,5,560
152,Kangra,32.166667,76.25,575,1480,15,890
153,Kinnaur,31.586346,78.3968441,44,121,0,77
154,Kullu,32.00186325,77.37899639741332,117,383,1,265
155,Lahaul and Spiti,32.5038495,77.58227188236428,11,19,0,8
156,Mandi,33.868829899999994,74.31880472886633,414,808,8,386
157,Shimla,31.1041526,77.1709729,261,604,11,325
158,Sirmaur,30.75,77.5,298,1249,5,946
159,Solan,30.92589585,77.08200509063624,746,2169,17,1403
160,Una,31.4685,76.2708,354,841,8,479
161,Ambala,30.3843674,76.770421,1229,5823,60,4534
162,Bhiwani,28.7931703,76.1391283,355,2003,21,1627
163,Charkhi Dadri,28.5919933,76.2719817,108,376,1,267
164,Faridabad,28.402837,77.3085626,1734,15860,191,13935
165,Fatehabad,27.02766825,78.2074341134146,544,1510,21,945
166,Gurugram,28.4646148,77.0299194,2231,15263,147,12885
167,Hisar,29.168807,75.7461103,975,3736,30,2731
169,Jhajjar,28.5336844,76.68981212035648,456,1873,19,1398
170,Jind,29.5,76.25,600,1303,12,691
171,Kaithal,29.74477075,76.35092772284784,502,1766,21,1243
172,Karnal,29.6803266,76.9896254,1946,5460,69,3445
173,Kurukshetra,29.9693747,76.8482787,1504,3600,62,2034
174,Mahendragarh,28.25,76.166667,551,2515,3,1961
175,Nuh,28.097345150000002,77.05085582101852,142,964,16,806
176,Palwal,28.12502575,77.35831300773046,171,1933,14,1748
177,Panchkula,30.616216450000003,77.04197804321875,1331,4110,41,2738
178,Panipat,29.3912753,76.9771675,1802,5741,59,3880
179,Rewari,28.1956468,76.6165179,575,4510,26,3909
180,Rohtak,28.9010899,76.5801935,947,4120,46,3127
181,Sirsa,29.583333,75.083333,838,2358,33,1487
182,Sonipat,29.0033144,77.0167323,913,5997,41,5043
183,Yamunanagar,30.2112003,77.28638972360895,625,2820,42,2153
184,Bokaro,23.699127949999998,85.99106894165021,447,3057,19,2591
185,Chatra,24.20162495,84.87817691941733,250,1007,5,752
186,Deoghar,24.4766423,86.60673245386945,209,1746,14,1523
187,Dhanbad,23.7952809,86.4309638,902,4006,45,3059
188,Dumka,24.2538512,87.30064714192224,204,815,6,605
189,East Singhbhum,22.5,85.5,3065,10660,244,7351
190,Garhwa,24.15529035,83.82522584408349,133,1509,7,1369
191,Giridih,24.25,85.916667,358,2621,9,2254
192,Godda,24.74334305,87.29285061796858,98,1013,6,909
193,Gumla,23.0916741,84.5738480719802,431,1256,2,823
194,Hazaribagh,23.9675151,85.43884568595615,746,2607,21,1840
195,Jamtara,23.9232867,86.77353493891458,46,552,1,505
196,Khunti,23.10018105,85.3454593617985,268,1106,3,835
197,Koderma,24.4931239,85.55608107203881,608,2152,17,1527
198,Latehar,23.74186545,84.51301366522105,227,1212,1,984
199,Lohardaga,23.46920055,84.73568423071751,124,791,5,662
200,Pakur,24.6379064,87.8556962,76,584,1,507
201,Palamu,23.916667,84.083333,133,2040,7,1900
202,Ramgarh,24.517725249999998,87.26258572061664,949,2785,14,1822
203,Ranchi,23.3700354,85.3250132,3466,13192,90,9636
204,Sahibganj,25.2820998,87.61850784289338,184,1027,9,834
205,Saraikela-Kharsawan,22.7464225,85.91689291046393,696,2043,7,1340
206,Simdega,22.6664325,84.5502679119221,326,1332,4,1002
207,West Singhbhum,22.5,85.5,390,2361,18,1953
208,Anantnag,33.746109950000005,75.18544753143254,705,2895,54,2136
209,Bandipora,34.4563234,74.68249997667994,909,2838,28,1901
210,Baramulla,34.205005650000004,74.36221081111597,951,3479,113,2415
211,Budgam,34.04796585,74.7441397838328,1357,3741,71,2313
212,Doda,33.1774307,75.56752281893789,412,826,9,405
213,Ganderbal,34.2880611,75.03058171219789,576,2103,25,1502
214,Jammu,32.7185614,74.8580917,5570,8352,88,2694
215,Kathua,32.583333,75.5,435,1333,12,886
216,Kishtwar,33.2761171,75.8169238781403,335,610,2,273
217,Kulgam,33.669800550000005,75.01480232217389,135,2091,40,1916
218,Kupwara,34.611023599999996,74.238478667319,979,2846,56,1811
219,Mirpur,33.1486351,73.7482102,0,0,0,0
220,Muzaffarabad,34.3734751,73.4702407,0,0,0,0
221,Pulwama,33.89829355,74.89634093792017,456,3164,60,2648
222,Punch,33.702939,74.24990151547188,486,900,6,408
223,Rajouri,33.3772495,74.3132332,586,1434,18,830
224,Ramban,33.211637100000004,75.20509890752818,171,825,1,653
225,Reasi,33.069103150000004,74.8378698208889,230,588,3,355
226,Samba,32.553,75.1108,438,1066,8,620
228,Srinagar,34.0747444,74.8204443,1959,11678,251,9468
229,Udhampur,33.0,75.166667,635,1454,4,815
230,Bagalkote,16.1853166,75.6967919,1336,8223,85,6802
231,Ballari,15.2485413,76.8323648,4739,26813,346,21728
232,Belagavi,15.8572666,74.5069343,3061,16369,237,13071
233,Bengaluru Rural,13.18077825,77.34174236923371,1536,6575,56,4983
234,Bengaluru Urban,12.94514225,77.55364499971128,41093,170662,2436,127132
235,Bidar,17.9104,77.5199,646,5444,143,4651
236,Chamarajanagara,11.9238058,76.9393558,440,3022,52,2519
237,Chikkaballapura,13.4358702,77.7312434,986,5686,71,4628
238,Chikkamagaluru,13.5,75.5,1519,6071,98,4454
239,Chitradurga,14.2266443,76.4005122,1286,4934,33,3615
240,Dakshina Kannada,12.82225975,75.22560110530964,3932,17363,440,12989
241,Davanagere,14.4661266,75.9206361,2378,12897,226,10293
242,Dharwad,15.4540505,75.0066516,2382,14508,422,11704
243,Gadag,15.4263647,75.6300786,1181,7557,107,6269
244,Hassan,13.0070817,76.0992703,3011,11956,235,8710
245,Haveri,14.7874825,75.3996731,1635,6593,127,4831
246,Kalaburagi,17.166667,77.083333,2367,14431,242,11822
247,Kodagu,12.3822808,75.66523533586208,319,1941,26,1596
248,Kolar,13.1369996,78.1339606,775,4482,75,3632
249,Koppal,15.3484144,76.1547421,1817,9061,189,7055
250,Mandya,12.5238888,76.8961961,2184,8261,86,5991
251,Mysuru,12.3051828,76.6553609,7002,25751,591,18158
252,Raichur,16.083333,77.166667,1615,9417,121,7681
253,Ramanagara,12.7252766,77.2804797,587,4218,38,3593
254,Shivamogga,13.9311723,75.569737,3175,12216,202,8839
255,Tumakuru,13.3400771,77.1006208,2528,9186,188,6470
256,Udupi,13.3419169,74.7473232,1874,14046,129,12043
257,Uttara Kannada,14.724474149999999,74.64223734496612,1984,6953,81,4888
258,Vijayapura,16.666667,75.916667,577,7750,134,7039
259,Yadgir,16.7689044,77.1380381,1238,7023,46,5739
260,Alappuzha,9.48870715,76.41521381074048,2135,7923,18,5764
261,Ernakulam,9.9825665,76.2990313,2959,9123,48,6108
262,Idukki,9.8497872,76.9797914,502,2273,3,1767
263,Kannur,11.8762254,75.3738043,2076,6066,36,3952
264,Kasaragod,12.421713050000001,75.19044977266321,2101,7193,37,5052
265,Kollam,8.8879509,76.5955013,2331,6920,28,4558
266,Kottayam,9.6287383,76.64553257124857,2180,6194,3,4011
267,Kozhikode,11.2586082,75.7788735,2443,8628,42,6138
268,Malappuram,11.10684475,76.10995510466662,2958,12735,35,9736
269,Palakkad,10.7691989,76.6512469,1464,6308,8,4834
270,Pathanamthitta,9.27854005,76.97405942942743,1177,4786,3,3604
271,Thiruvananthapuram,8.5241122,76.9360573,5126,21290,148,15992
272,Thrissur,10.5256264,76.2132542,2127,6773,26,4616
273,Wayanad,11.715219000000001,76.12690294658198,495,2067,5,1567
274,Kargil,34.420542600000005,75.6467756307598,404,1486,23,1059
275,Leh,34.1642029,77.5848133,465,1859,17,1377
276,Lakshadweep,10.8832771,72.8171069,0,0,0,0
277,Ahmednagar,19.162772500000003,74.85802430085195,6837,29017,435,21745
278,Akola,20.7618624,77.19217162524623,1582,5286,181,3522
279,Amravati,21.15454115,77.64429617998744,2712,8428,187,5529
280,Aurangabad,19.877263,75.3390241,6991,29422,757,21674
281,Beed,18.9904059,75.7542291,2126,6833,189,4518
282,Bhandara,27.604285400000002,84.64526207773613,1868,2938,45,1025
283,Buldhana,20.583333,76.416667,1847,5264,97,3320
284,Chandrapur,26.21231825,91.89620684881584,2957,5586,61,2568
285,Dhule,21.13050145,74.47891180551228,2029,10850,280,8539
286,Gadchiroli,19.759070350000002,80.16228072580182,293,1213,2,918
287,Gondia,21.455228,80.1962729,1409,3128,31,1688
288,Hingoli,19.54140965,77.17376601317515,521,2062,47,1494
289,Jalgaon,20.84351185,75.52592658756026,9921,37121,1023,26177
290,Jalna,19.9182328,75.8686246900443,1862,5958,170,3926
291,Kolhapur,16.7028412,74.2405329,9468,32815,932,22415
292,Latur,18.35146855,76.7551212230513,4431,12477,350,7696
293,Mumbai,18.9387711,72.8353355,30316,169741,8150,130918
294,Mumbai Suburban,19.13095765,72.88593095460952,0,0,0,0
295,Nagpur,21.1498134,79.0820556,21522,50885,1356,28003
296,Nanded,19.17257215,77.29141237169956,5787,11385,305,5293
297,Nandurbar,21.365998949999998,74.28400358178766,1220,3992,99,2673
298,Nashik,20.0112475,73.7902364,12860,54632,1058,40714
299,Osmanabad,18.16984395,76.11796321159572,2440,8699,235,6024
300,Palghar,19.68086385,72.82537342511341,5606,30926,717,24603
301,Parbhani,19.29031365,76.60290343431203,1391,4118,126,2601
302,Pune,18.6452489,73.92318563785392,77624,232840,4813,150403
303,Raigad,18.4928092,73.13807095426539,11056,41355,922,29375
304,Ratnagiri,17.282607900000002,73.4569787039826,2689,6237,182,3366
305,Sangli,16.8502534,74.5948885,10361,25064,740,13963
306,Satara,17.63612885,74.29827807601782,8890,24321,596,14833
307,Sindhudurg,16.135719299999998,73.65220860183584,1139,2389,40,1210
308,Solapur,17.84990665,75.27632027348457,7116,27189,955,19117
309,Thane,19.1943294,72.9701779,29531,156916,4162,123222
310,Wardha,20.82562315,78.61314549522919,845,2232,25,1361
311,Washim,20.28792095,77.23606281061035,736,2757,52,1968
312,Yavatmal,20.15,78.35,1802,5145,111,3232
313,East Garo Hills,25.61849455,90.63421621777749,17,104,0,87
314,East Jaintia Hills,25.25157605,92.48405006942016,148,183,0,35
315,East Khasi Hills,25.405680850000003,91.83546771298455,1047,2333,21,1265
316,North Garo Hills,25.8619841,90.70177048839348,12,31,0,19
318,South Garo Hills,25.347969,90.56577725964563,20,37,0,17
319,South West Garo Hills,25.448052699999998,89.9987852968616,9,23,0,14
320,South West Khasi Hills,25.330722100000003,91.32645013786319,5,6,0,1
321,West Garo Hills,25.60780175,90.20380106122235,201,577,1,375
322,West Jaintia Hills,25.4425965,92.29882747091773,13,40,0,27
323,West Khasi Hills,25.58173695,91.28910306371017,14,65,1,50
324,Bishnupur,24.562463649999998,93.8012483746545,238,298,2,58
325,Chandel,24.3197442,94.02109882254321,105,113,4,4
326,Churachandpur,24.378704,93.69700149533944,402,463,3,58
327,Imphal East,24.85154025,94.00947957721581,773,800,11,16
328,Imphal West,24.757326,93.85847858025147,1928,1988,8,52
329,Jiribam,24.6778472,93.1549000879473,145,147,0,2
330,Kakching,24.38904015,93.88013239529906,197,224,0,27
331,Kamjong,24.8409769,94.52830740954334,142,159,0,17
332,Kangpokpi,25.1524326,93.9714932,326,347,2,19
333,Noney,24.8625867,93.6237454,53,71,0,18
334,Pherzawl,24.2595653,93.1906004,18,33,0,15
335,Senapati,25.380439600000003,94.0569854178655,251,272,0,21
336,Tamenglong,24.935401300000002,93.56791112289724,234,266,0,32
337,Tengnoupal,24.31392145,94.23756082375633,69,82,0,13
338,Thoubal,24.624587,94.04247928402684,787,823,13,23
339,Ukhrul,25.109266849999997,94.38239281654197,290,308,0,18
340,Agar Malwa,23.9342963,76.14523314122312,72,304,6,226
341,Alirajpur,22.285939550000002,74.35468608752092,210,843,9,624
342,Anuppur,23.03525965,81.3884438474638,64,552,6,482
343,Ashoknagar,24.576189,77.7302895,71,313,12,230
344,Balaghat,21.966667,80.333333,206,542,1,335
345,Barwani,21.75194325,74.89175175338488,207,1442,16,1219
346,Betul,21.8796162,77.87568124563079,354,1112,24,734
347,Bhind,26.5,78.75,65,706,5,636
348,Bhopal,23.2584857,77.401989,1796,13187,324,11067
349,Burhanpur,26.2697215,82.99442536730413,44,616,25,547
350,Chhatarpur,24.75,79.75,116,819,20,683
351,Chhindwara,22.139831049999998,78.80964495467987,214,716,15,487
352,Damoh,23.75,79.583333,391,1078,20,667
353,Datia,25.75,78.5,163,965,10,792
354,Dewas,23.0,76.166667,157,950,17,776
355,Dhar,22.5,75.25,444,1407,20,943
356,Dindori,20.25527235,73.80730056332233,83,259,0,176
357,Guna,24.5,77.5,105,460,12,343
358,Gwalior,26.2037247,78.1573628,2085,7640,83,5472
359,Harda,22.3388828,77.0929933,113,613,14,486
360,Hoshangabad,22.6001502,77.92664521413192,332,897,23,542
361,Indore,22.7203616,75.8681996,5011,16782,458,11313
362,Jabalpur,23.1608938,79.9497702,1193,6214,110,4911
363,Jhabua,22.88585225,74.72513368804519,198,983,9,776
364,Katni,23.8339621,80.392456,107,634,11,516
365,Khandwa,21.9778642,76.5688282326971,223,1182,26,933
366,Khargone,21.8187743,75.6064577,545,2352,33,1774
367,Mandla,22.68536625,80.58150561711888,97,378,5,276
368,Mandsaur,24.2651306,75.38718193725012,217,1146,14,915
369,Morena,26.166667,77.5,130,2263,17,2116
370,Narsinghpur,22.9467047,79.1980228,545,1110,7,558
371,Neemuch,24.63044655,75.18339614635457,343,1518,23,1152
372,Niwari,25.312470400000002,78.66785016924982,59,254,1,194
373,Panna,24.5,80.25,71,364,1,292
374,Raisen,23.25,78.083333,251,973,19,703
375,Rajgarh,23.87167135,76.7748902040889,168,1022,15,839
376,Ratlam,23.501957750000003,74.95284518680097,313,1500,30,1157
377,Rewa,24.75926685,81.65500021078341,352,1120,17,751
378,Sagar,23.80961225,78.75911360578634,390,1564,72,1102
379,Satna,24.5,81.0,173,871,23,675
380,Sehore,23.1156882,77.06623939176504,402,1079,23,654
381,Seoni,22.275878900000002,79.721044651047,124,415,6,285
382,Shahdol,23.3002343,81.364771,277,907,12,618
383,Shajapur,23.37074105,76.62051527475785,183,667,8,476
384,Sheopur,25.6656611,76.6954843,151,664,4,509
385,Shivpuri,25.37524125,77.82811932629714,497,1608,15,1096
386,Sidhi,24.25,82.0,191,519,2,326
387,Singrauli,24.1974432,82.6661453,109,474,8,357
388,Tikamgarh,24.85450275,79.04698123882801,114,567,17,436
389,Ujjain,23.174597,75.7851423,406,2230,84,1740
390,Umaria,23.64319305,80.94239522009255,78,221,3,140
391,Vidisha,23.916667,78.0,277,1245,27,941
392,Aizawl,23.7414092,92.7209297,447,944,0,497
393,Champhai,23.69082385,93.34839119913778,2,17,0,15
394,Hnahthial,22.9663656,93.01026448504744,2,2,0,0
395,Khawzawl,23.53892045,93.1586839061471,0,3,0,3
396,Kolasib,24.18947525,92.7133181281124,104,207,0,103
397,Lawngtlai,22.34596495,92.8119536068969,4,33,0,29
398,Lunglei,22.898553,92.75192291719874,10,128,0,118
399,Mamit,23.75590845,92.45173568830637,12,33,0,21
400,Saiha,22.4995518,92.97798988717027,4,31,0,27
401,Saitual,23.6929995,92.965428,7,11,0,4
402,Serchhip,23.385892300000002,92.930598908176,6,19,0,13
404,Dimapur,25.9135914,93.7283707,723,2505,8,1763
405,Kiphire,25.81551155,94.84166400470303,11,16,0,5
406,Kohima,25.75,94.166667,386,1534,0,1144
407,Longleng,26.49031725,94.77214247303138,0,7,0,6
408,Mokokchung,26.4795861,94.51052754768273,17,39,0,22
409,Mon,26.8038,94.9767,23,325,0,298
410,Peren,25.47907705,93.72563659313207,3,350,0,347
411,Phek,25.75,94.5,1,34,0,33
412,Tuensang,26.168505500000002,94.85819821659115,3,73,0,70
413,Wokha,26.166667,94.25,1,35,0,34
414,Zunheboto,26.0,94.5,4,119,0,115
416,Angul,20.8382426,85.0973949,840,1902,4,1058
417,Balangir,20.75,83.25,890,2869,10,1969
418,Balasore,21.5002888,86.9202627,1089,5174,20,4065
419,Bargarh,21.3474637,83.65427922282043,1585,4323,9,2729
420,Bhadrak,21.0633288,86.5053731,762,3887,14,3111
421,Boudh,20.8415619,84.3213321,342,1093,0,751
422,Cuttack,20.4686,85.8792,3254,13015,51,9710
423,Deogarh,21.5370786,84.7301184,122,373,0,251
424,Dhenkanal,20.75,85.5,497,2539,2,2040
425,Gajapati,19.19557415,84.19297736346317,184,3152,19,2949
426,Ganjam,19.5,84.5,391,19211,223,18597
427,Jagatsinghpur,20.2593872,86.1660878,921,2996,6,2069
428,Jajpur,20.8522696,86.3385714,1452,5734,8,4274
429,Jharsuguda,21.87705125,84.00905063735019,699,2508,1,1808
430,Kalahandi,19.75,83.0,493,1977,5,1479
431,Kandhamal,20.13069385,84.07904760590154,407,2844,15,2422
432,Kendrapara,20.50040085,86.43170622796478,1001,3091,4,2086
433,Kendujhar,21.5892323,85.66878413736906,467,2865,10,2388
434,Khordha,20.22564715,85.56059465125232,6228,25996,102,19666
435,Koraput,18.7232023,82.60811827787269,719,4759,7,4033
436,Malkangiri,18.35835435,81.89823748747048,244,2788,11,2533
437,Mayurbhanj,21.75,86.5,1063,5618,13,4542
438,Nabarangapur,19.60962325,82.29876854111501,762,2128,4,1362
439,Nayagarh,20.1160666,85.11195643843573,546,3797,18,3233
440,Nuapada,20.769099750000002,82.51862845874122,764,1495,0,731
441,Puri,19.8076083,85.8252538,1783,6287,28,4476
442,Rayagada,18.965998550000002,84.19287455014992,539,6086,33,5514
443,Sambalpur,21.4,83.883333,815,3987,16,3156
444,Subarnapur,27.2274941,84.71486464642322,840,1743,4,899
445,Sundargarh,22.25,84.5,750,5533,42,4741
446,Amritsar,31.6343083,74.8736788,1425,6471,253,4793
447,Barnala,30.3704685,75.504017418548,419,1468,31,1018
448,Bathinda,30.17911535,75.04710156312628,1414,3987,73,2500
449,Faridkot,30.60092505,74.79477422840449,687,1961,31,1243
450,Fatehgarh Sahib,30.6600764,76.38002163710028,210,1415,53,1152
451,Fazilka,30.336099599999997,74.11794319222481,399,1449,23,1027
452,Ferozepur,30.6839733,76.3594033,648,2424,60,1716
453,Gurdaspur,31.904229899999997,75.22738141098935,1430,4177,86,2661
454,Hoshiarpur,31.60857425,75.84644246890946,928,2868,85,1855
455,Jalandhar,31.29201065,75.56805772253911,2318,9682,254,7110
456,Kapurthala,31.38524095,75.30552273989395,633,2050,94,1323
457,Ludhiana,30.9090157,75.851601,1580,13499,577,11342
458,Mansa,29.8769971,75.4889866137018,391,1052,17,644
459,Moga,30.7839866,75.16057422541162,559,1861,50,1252
460,Pathankot,32.301710400000005,75.65864246622084,720,2176,37,1419
461,Patiala,30.2090874,76.3398720856221,1739,8641,243,6659
462,Rupnagar,31.09168085,76.5272673916138,348,1301,43,910
463,S.A.S. Nagar,30.8823935,75.8703501,2319,6575,137,4119
464,Sangrur,30.2093363,75.8184224340909,421,2766,114,2231
466,Sri Muktsar Sahib,30.4692,74.5182,629,1683,21,1033
467,Tarn Taran,31.32124525,74.84130629340785,367,1182,45,770
468,Karaikal,11.7003,75.5425,325,1295,20,950
470,Puducherry,11.9340568,79.8306447,4220,17158,331,12607
471,Yanam,16.7333666,82.2145164,294,1277,34,949
472,Ajmer,26.4691,74.639,482,5266,85,4699
473,Alwar,27.639077049999997,76.6144524902045,779,9015,31,8205
474,Banswara,23.4930788,74.34840231310622,183,870,7,680
475,Baran,24.9171512,76.69640322489136,275,1008,13,720
476,Barmer,25.5819034,71.61966242777196,119,2495,26,2350
477,Bharatpur,27.26521245,77.36912554739122,115,3928,73,3740
478,Bhilwara,25.48877345,74.69961283584024,331,2547,16,2200
479,Bikaner,28.0159286,73.3171367,356,5247,92,4799
480,BSF Camp,23.2200507,69.6614313,0,85,0,85
481,Bundi,25.5,75.833333,389,954,5,560
482,Chittorgarh,24.718026000000002,74.47214697200876,202,1267,10,1055
483,Churu,28.2061443,74.69190729963461,197,1251,9,1045
484,Dausa,26.80486585,76.44374569929329,113,702,9,580
485,Dholpur,26.7009896,77.8967857,169,2536,23,2344
488,Ganganagar,23.7497214,91.87663495294915,218,929,9,702
491,Jaipur,26.916194,75.820349,5389,14987,299,9299
492,Jaisalmer,27.02801615,70.7785056232077,114,530,6,410
493,Jalore,25.3476006,72.6260916,131,1493,13,1349
494,Jhalawar,24.3132368,76.52223626123003,286,2093,8,1799
495,Jhunjhunu,28.1287995,75.3992581,146,1259,7,1106
496,Jodhpur,26.2967719,73.0351433,2104,15055,121,12830
497,Karauli,26.51668105,77.05772976517363,111,696,7,578
498,Kota,25.1968256,76.00089330885552,2554,7520,87,4879
499,Nagaur,27.0607859,74.17667537582712,201,2844,44,2599
500,Pali,25.6040908,73.41560878556902,195,4588,48,4345
501,Pratapgarh,25.75,81.75,181,619,8,430
502,Rajsamand,25.29131615,73.8244924740361,200,1468,18,1250
503,Sawai Madhopur,26.22914115,76.30453277017932,128,679,18,533
504,Sikar,27.662826000000003,75.02792628691331,232,3166,24,2910
505,Sirohi,24.811404699999997,72.83002573160249,96,1537,18,1423
506,Tonk,26.12214725,75.66375373932236,109,821,13,699
507,Udaipur,24.578721,73.6862571,267,2832,35,2530
508,East Sikkim,27.601029,88.45413638680145,337,1446,3,1106
509,North Sikkim,27.601029,88.45413638680145,0,1,0,1
510,South Sikkim,27.601029,88.45413638680145,402,475,0,73
511,West Sikkim,27.601029,88.45413638680145,72,87,0,15
512,Adilabad,19.5,78.5,1288,1303,0,15
513,Bhadradri Kothagudem,17.71534525,80.57149761778712,2801,2805,0,4
514,Hyderabad,17.38878595,78.46106473453146,55731,56059,23,305
515,Jagtial,18.82135895,78.91506632525903,2941,2943,0,2
516,Jangaon,17.7265463,79.25901524867399,1792,1793,0,1
517,Jayashankar Bhupalapally,18.515987199999998,79.96939659792528,981,981,0,0
518,Jogulamba Gadwal,16.0999202,77.73415835077523,2124,2150,1,25
519,Kamareddy,18.316551,78.05393808043348,2946,2954,0,8
520,Karimnagar,18.4346438,79.1322648,6577,6593,0,16
521,Khammam,17.5,80.333333,4553,4556,0,3
523,Mahabubabad,17.7138983,80.04134252767227,2525,2526,0,1
524,Mahabubnagar,16.696568550000002,77.95911462089693,2614,2622,0,8
525,Mancherial,18.8761795,79.4449696,2682,2683,1,0
526,Medak,17.9375095,78.21174498510584,1777,1781,0,4
527,Medchal Malkajgiri,17.53498345,78.52463873502381,9031,9041,1,9
528,Mulugu,18.1932372,79.9413676,1002,1004,0,2
529,Nagarkurnool,16.415762649999998,78.68304333132829,1965,1967,0,2
530,Nalgonda,16.8579636,79.21749353315548,5254,5266,0,12
531,Narayanpet,16.700551750000002,77.61648447017446,574,575,1,0
532,Nirmal,19.091520950000003,78.39660898429065,1089,1102,0,13
533,Nizamabad,26.055317950000003,82.99313867937335,4634,4664,0,30
534,Peddapalli,18.62065305,79.49501710882896,3065,3066,0,1
535,Rajanna Sircilla,18.452116,78.76455837158737,2302,2304,0,2
536,Ranga Reddy,12.9554461,80.2530374,13087,13106,2,17
537,Sangareddy,17.86859205,77.8228199507381,4262,4268,0,6
538,Siddipet,18.005585099999998,78.89611304969961,3380,3381,0,1
539,Suryapet,17.08001385,79.7925329742427,3316,3340,0,24
540,Vikarabad,17.2702855,77.74529700637382,928,944,1,15
541,Wanaparthy,16.285294399999998,77.98644727021286,1720,1720,0,0
542,Warangal Rural,17.94854255,79.81612399359742,1743,1743,0,0
543,Warangal Urban,18.02625695,79.46444493996634,6234,6257,0,23
544,Yadadri Bhuvanagiri,17.42819665,79.09049097612105,1645,1645,0,0
545,Ariyalur,11.076035950000001,79.11745538182738,227,3271,37,3007
546,Chengalpattu,12.76657415,79.99931906821485,1987,30366,481,27898
547,Chennai,13.0801721,80.2838331,10396,148584,2973,135215
548,Coimbatore,11.0018115,76.9628425,3495,22156,353,18308
549,Cuddalore,11.74269375,79.75030644171935,2966,16275,174,13135
550,Dharmapuri,12.09680475,78.19304301026716,697,2029,20,1312
551,Dindigul,10.3303299,78.0673979084697,762,7863,150,6951
552,Erode,11.369204400000001,77.67662686841793,1043,4534,59,3432
553,Kallakurichi,11.79468465,79.03882106200822,910,7888,87,6891
554,Kancheepuram,12.87960515,79.70427615297989,1273,19425,289,17863
555,Kanyakumari,8.079252,77.5499338,736,10958,207,10015
556,Karur,10.9301522,78.08485454572889,397,2161,32,1732
557,Krishnagiri,12.5188835,78.2206536,858,3174,44,2272
558,Madurai,9.9261153,78.1140983,892,15310,375,14043
559,Nagapattinam,10.805627600000001,79.824659783024,1136,4075,67,2872
560,Namakkal,11.2191319,78.23739801779963,912,3344,50,2382
561,Nilgiris,11.4,76.7,549,2349,17,1783
562,Perambalur,11.2287716,78.81825554962782,112,1545,19,1414
563,Pudukkottai,10.5,78.833333,786,7427,121,6520
564,Ramanathapuram,9.3895523,78.85907071521498,244,5181,113,4824
565,Ranipet,11.6643,78.146,690,12093,145,11258
567,Sivaganga,9.851231,78.53047154820716,236,4521,114,4171
568,Tenkasi,9.09407535,77.47583689833286,553,6260,116,5591
569,Thanjavur,10.7860267,79.1381497,877,8340,128,7335
570,Theni,9.969664300000002,77.47420048524822,786,13775,157,12832
571,Thiruvallur,13.13014755,79.92435386254967,2087,28325,476,25762
572,Thiruvarur,10.73618605,79.63318659437627,700,5267,65,4502
573,Thoothukkudi,8.756745200000001,78.07975266019861,681,12300,119,11500
574,Tiruchirappalli,10.804973,78.6870296,891,8846,133,7822
575,Tirunelveli,8.722388,77.710247,1072,11131,193,9866
576,Tirupathur,12.453306399999999,78.55290857022919,492,3701,73,3136
577,Tiruppur,10.791526650000002,77.53254662905589,1717,4748,85,2946
578,Tiruvannamalai,12.22721295,79.07015554906167,1539,13071,194,11338
579,Vellore,12.7948109,79.0006410968549,932,12629,194,11503
580,Viluppuram,11.9137874,79.50789297942772,880,9441,87,8474
581,Virudhunagar,9.5208936,77.8784563961865,436,13683,202,13045
582,Dhalai,23.8253158,91.9732226716333,849,1973,7,1116
583,Gomati,23.4613369,91.60718003817723,611,2149,22,1515
584,Khowai,24.04673835,91.62320953646798,415,1357,18,924
585,North Tripura,24.092147599999997,92.24512135019847,615,1671,8,1042
587,South Tripura,23.5,91.666667,675,1479,9,792
588,Unokoti,24.19098485,92.04604830534434,540,1178,9,629
589,West Tripura,23.916667,91.5,3217,7133,110,3795
590,Agra,27.1752554,78.0098161,828,4045,113,3104
591,Aligarh,27.87698975,78.13729027600994,1716,6367,31,4620
592,Ambedkar Nagar,26.40349795,82.60728148676125,274,1162,24,864
593,Amethi,26.34738315,81.6238783207884,577,1946,14,1355
594,Amroha,28.9233969,78.48831693262684,450,2158,23,1685
595,Auraiya,26.65573395,79.51504701181831,380,1736,19,1337
596,Ayodhya,26.7990707,82.2052321,1050,4636,55,3531
597,Azamgarh,26.02269675,83.02887343114848,523,3806,61,3222
598,Baghpat,28.97240405,77.33315284938224,170,1093,18,905
599,Bahraich,27.7336958,81.47732127661058,415,2577,42,2120
600,Ballia,25.877932549999997,84.11995931460379,810,4892,58,4024
601,Balrampur,25.452,80.5438,199,1222,20,1003
603,Barabanki,26.93823105,81.38609761204991,1110,5017,42,3865
604,Bareilly,28.457876,79.40557093743058,1952,8462,127,6383
605,Basti,27.25,83.0,453,2956,60,2443
606,Bhadohi,25.422922749999998,82.48843708088575,265,1357,11,1081
607,Bijnor,29.40604895,78.48087839917878,483,2382,26,1873
608,Budaun,28.06831165,79.04607312079293,492,2147,21,1634
609,Bulandshahr,28.38886085,77.97479772598118,556,2923,50,2317
610,Chandauli,25.1265777,83.2496557733391,551,2593,23,2019
611,Chitrakoot,25.2195207,81.102282425,200,954,5,749
612,Deoria,26.42384715,83.76273169028727,915,5035,53,4067
613,Etah,27.5541146,78.60078640304634,408,1354,11,935
614,Etawah,26.718324350000003,79.09025375025163,846,3064,44,2174
615,Farrukhabad,27.43719385,79.48912946503123,439,1762,30,1293
616,Fatehpur,25.8435395,80.91800397088501,418,1756,27,1311
617,Firozabad,27.17736635,78.38991197951182,447,2117,50,1620
618,Gautam Buddha Nagar,28.36760975,77.59740326369902,2008,10192,48,8136
619,Ghaziabad,28.711241,77.4445372,1968,10787,73,8746
620,Ghazipur,25.603508400000003,83.50745404887138,378,3334,33,2923
621,Gonda,27.1096669,81.9183291218813,475,3152,32,2645
622,Gorakhpur,26.67132865,83.36458284327038,2898,12737,187,9652
623,Hamirpur,25.75,80.0,168,848,15,665
624,Hapur,28.740612499999997,77.83542556519009,347,2139,34,1758
625,Hardoi,27.33857665,80.0975264641719,775,3495,47,2673
626,Hathras,27.57324325,78.11173866751716,121,798,7,670
627,Jalaun,26.105546,79.42765264782076,322,1743,16,1405
628,Jaunpur,25.7955927,82.48834097504385,532,4349,57,3760
629,Jhansi,25.531031149999997,78.65268901605349,1051,5674,116,4507
630,Kannauj,26.999697400000002,79.68861212775874,263,2011,17,1731
631,Kanpur Dehat,26.4600465,79.85550999615592,410,1494,16,1068
632,Kanpur Nagar,26.4402119,80.26930513416637,4625,20020,527,14868
633,Kasganj,27.883846050000002,78.63489003747873,268,1158,2,888
634,Kaushambi,25.53609455,81.44672838764605,201,1229,14,1014
635,Kushinagar,26.7438272,83.9162322,710,4096,26,3360
636,Lakhimpur Kheri,27.985060150000002,80.75384538357649,742,3241,38,2461
637,Lalitpur,24.70038485,78.51866758648349,590,1965,27,1348
638,Lucknow,26.8381,80.9346001,9555,39188,516,29117
639,Maharajganj,27.09254225,83.56696261338257,724,3872,50,3098
640,Mahoba,25.36176885,79.70499475331877,139,662,6,517
641,Mainpuri,27.2098219,79.04813700847944,572,2178,37,1569
642,Mathura,27.633333,77.583333,777,3096,58,2261
643,Mau,26.0376878,83.49793418499047,395,2008,20,1593
644,Meerut,28.916667,77.683333,1981,6498,171,4346
645,Mirzapur,24.9356347,82.64770129811649,324,2013,26,1663
646,Moradabad,28.8638424,78.80577833091104,1232,6662,120,5310
647,Muzaffarnagar,29.44800635,77.74068502568672,1118,3295,43,2134
648,Pilibhit,28.495207649999998,80.10754080018077,409,2906,47,2450
649,Pratapgarh,25.75,81.75,834,2781,35,1912
650,Prayagraj,25.4381302,81.8338005,3726,14192,216,10250
651,Rae Bareli,26.25,81.25,616,2142,57,1469
652,Rampur,28.79406825,79.1859304458554,712,4235,34,3489
653,Saharanpur,29.9880774,77.5081299470512,1726,5751,75,3950
654,Sambhal,28.61875255,78.55087405404804,261,1878,33,1584
655,Sant Kabir Nagar,26.7882737,82.9600798,232,2260,28,2000
656,Shahjahanpur,27.912633149999998,79.74656294869826,1024,4491,58,3409
657,Shamli,29.5008816,77.34838258540861,506,1702,12,1184
658,Shrawasti,27.2716,82.821,77,825,11,737
660,Sitapur,27.5046392,80.82946583420815,646,2904,24,2234
661,Sonbhadra,24.38657525,83.07863061278505,658,2247,19,1570
662,Sultanpur,26.242510850000002,82.29616931685918,528,2643,41,2074
663,Unnao,26.57550365,80.61376177782856,670,2791,55,2066
664,Varanasi,25.3356491,83.0076292,2092,10761,206,8463
665,Almora,29.703094999999998,79.43317023326716,311,875,3,558
666,Bageshwar,30.0086722,79.9302967950447,156,382,1,225
667,Chamoli,30.499632300000002,79.61879245944404,165,519,0,351
668,Champawat,29.23631315,80.10172076512075,283,543,2,258
669,Dehradun,30.3255646,78.0436813,3179,7585,200,4173
670,Haridwar,29.9384473,78.1452985,2126,6737,66,4521
671,Nainital,29.2031392,79.4176945,1230,4126,75,2810
672,Pauri Garhwal,29.84591115,78.70766746320547,524,1126,10,575
673,Pithoragarh,30.12666775,80.48338013734374,237,669,4,428
674,Rudraprayag,30.3009965,79.06287964782695,262,488,1,224
675,Tehri Garhwal,30.5,78.666667,420,1734,2,1312
676,Udham Singh Nagar,29.048098799999998,79.4313133223357,1154,5887,46,4661
677,Uttarkashi,30.9654214,78.63368731187963,350,1302,4,944
678,Alipurduar,26.4851573,89.5246926,513,3283,28,2742
679,Bankura,23.13195425,87.20739720367507,639,3864,29,3196
680,Birbhum,24.0,87.583333,398,2746,21,2327
681,Cooch Behar,26.3223696,89.4592445,596,4279,20,3663
682,Dakshin Dinajpur,25.38703085,88.50471504999999,412,4472,29,4031
683,Darjeeling,27.0383718,88.2617544,692,6230,92,5446
684,Hooghly,22.9052114,88.3760639,1401,9977,172,8404
685,Howrah,22.5736296,88.3251045,938,15217,456,13823
686,Jalpaiguri,26.626483649999997,88.73407701468993,580,4726,40,4106
687,Jhargram,22.3770636,87.04867177362203,63,369,2,304
688,Kalimpong,27.07169,88.4729,111,637,3,523
689,Kolkata,22.54541245,88.3567751581234,4160,46588,1473,40955
690,Malda,25.0057449,88.1398483,409,5585,49,5127
691,Murshidabad,24.1745993,88.2721335,642,4404,52,3710
692,Nadia,23.48454125,88.55676307470536,934,5440,64,4442
693,North 24 Parganas,22.7182799,88.64248090898516,4396,41594,889,36309
694,Paschim Bardhaman,23.64260775,87.16448126068323,1046,5369,45,4278
695,Paschim Medinipur,22.3599134,87.41331447600871,1396,6965,80,5489
696,Purba Bardhaman,23.391717,87.90621212355462,624,3711,27,3060
697,Purba Medinipur,22.06382145,87.74573460267038,1446,8521,87,6988
698,Purulia,23.032189,89.5911025,494,2141,7,1640
699,South 24 Parganas,22.1815262,88.53780483989941,1389,13712,250,12073
700,Uttar Dinajpur,25.8707958,87.96259728449391,345,2812,27,2440
701,North and Middle Andaman,12.61123865,92.83165406414926,0,1,0,1
702,South Andaman,10.7056905,92.48746789633373,19,51,0,32
703,Anantapur,14.6546235,77.55625984224562,4288,49306,407,44611
704,Chittoor,13.1601048,79.15555061803596,8477,49398,525,40396
705,East Godavari,17.233496,81.7225986,12098,76808,454,64256
706,Guntur,16.2915189,80.4541588,7750,45338,463,37125
707,Krishna,16.6691525,80.7190024,3074,21274,347,17853
708,Kurnool,15.8309251,78.0425373,4048,51625,417,47160
709,Prakasam,14.4426,79.9865,14379,36442,374,21689
711,Srikakulam,18.32002205,83.91607719937166,6287,32230,286,25657
712,Visakhapatnam,17.7231276,83.3012842,5946,43848,358,37544
713,Vizianagaram,18.1120819,83.4052196224888,9694,27946,196,18056
714,West Godavari,17.0,81.166667,7759,50474,388,42327
715,Y.S.R. Kadapa,14.4752936,78.8216861,6195,36165,306,29664
716,Anjaw,28.1114301,96.82699963398373,24,79,0,55
717,Changlang,27.1398402,95.7382485,100,593,0,493
718,East Kameng,27.3,93.05,21,242,0,221
719,East Siang,28.3,95.15,152,407,1,254
720,Kamle,27.629,84.7645667,0,3,0,3
721,Kra Daadi,27.96354175,93.76656538768381,1,4,0,3
722,Kurung Kumey,27.98636765,93.15783468644102,15,20,0,5
723,Lepa Rada,27.9211266,94.74093620019156,21,78,0,57
724,Lohit,28.035016149999997,96.17135154220676,49,190,0,141
725,Longding,26.879454600000003,95.3155652456941,51,83,0,32
726,Lower Dibang Valley,28.21495625,95.87877403567019,88,138,0,50
727,Lower Siang,27.80069825,94.56502334121075,22,146,0,124
728,Lower Subansiri,27.8,93.6,52,108,0,56
729,Namsai,27.71403055,96.01597093953018,16,212,1,195
730,Pakke Kessang,27.15828555,93.15615024389129,1,29,0,28
731,Papum Pare,27.286366649999998,93.61875168206382,615,2253,4,1634
732,Shi Yomi,28.68516625,94.23678241115617,4,21,0,17
733,Siang,28.477491999999998,94.81655728795752,1,43,0,42
734,Tawang,27.5879186,91.863733,63,222,1,158
735,Tirap,27.03016895,95.49791754505583,54,222,0,168
736,Upper Dibang Valley,28.7,95.7,3,4,0,1
737,Upper Siang,28.73120455,95.03773151350946,37,102,0,65
738,Upper Subansiri,28.3,94.0,29,167,0,138
739,West Kameng,27.4,92.35,84,424,3,337
740,West Siang,28.4,94.55,218,317,0,99
