,District,Latitude,longitude,ACTIVE CASES,CONFIRMED CASES,DECEASED CASES,RECOVERED CASES
0,Baksa,26.6935,91.5984,235,687,5,447
1,Barpeta,26.34142215,91.01674328474073,93,1121,4,1024
2,Biswanath,26.7773957,93.25694367444689,88,467,0,379
3,Bongaigaon,26.4800126,90.5580387,466,1303,3,834
4,Cachar,24.758639950000003,92.88166475768219,4585,6111,28,1498
5,Charaideo,27.06971635,95.06426298389661,5,113,3,105
6,Chirang,26.6464231,90.62415698729875,59,280,2,219
7,Darrang,26.75,92.5,225,1967,12,1730
8,Dhemaji,27.466831499999998,94.51786508708852,323,765,2,440
9,Dhubri,26.01894625,89.94188952461522,504,1723,4,1215
10,Dibrugarh,27.4844597,94.9019447,5489,7951,53,2409
11,Dima Hasao,25.400362549999997,93.07522922678905,38,237,0,199
12,Goalpara,26.1783623,90.6226683,38,658,1,568
13,Golaghat,26.40490095,94.03209112120626,954,2620,10,1656
14,Hailakandi,24.68845365,92.57381528240944,509,1632,7,1116
15,Hojai,26.009390850000003,92.84879014262606,478,1646,8,1160
16,Jorhat,26.7577925,94.2079645,3829,5598,17,1752
17,Kamrup,26.12755515,91.2998714797357,2496,4590,20,2074
18,Kamrup Metropolitan,26.13526375,91.86167062524619,21458,36133,76,14599
19,Karbi Anglong,26.0,93.5,72,632,8,552
20,Karimganj,24.8483482,92.33221292310328,222,1200,23,955
21,Kokrajhar,26.58687695,90.29293105124796,47,408,8,353
22,Lakhimpur,27.985060150000002,80.75384538357649,771,1908,2,1135
23,Majuli,27.021952849999998,94.32742302965544,84,165,1,80
24,Morigaon,26.2578325,92.3419427,79,638,2,557
25,Nagaon,26.30414915,92.71605974430346,1999,4515,10,2506
26,Nalbari,26.42386165,91.4512275462117,111,948,9,828
27,Sivasagar,26.9834936,94.6394226,46,529,10,473
28,Sonitpur,26.767770749999997,92.70140885850532,620,2351,4,1727
29,South Salmara Mankachar,25.7604472,89.8928061082699,4,51,0,47
30,Tinsukia,27.52016575,95.5306347312879,1545,3366,23,1798
31,Udalguri,26.776480300000003,92.10537533897156,88,758,4,666
32,West Karbi Anglong,25.85291415,92.58756812404593,1,39,1,37
33,Araria,26.26498795,87.37162648106798,797,4163,13,3353
34,Arwal,25.180777149999997,84.65920203021554,128,1507,7,1372
35,Aurangabad,19.877263,75.3390241,352,3230,8,2870
36,Banka,24.8655681,86.87278642295597,219,1959,8,1732
37,Begusarai,25.5127194,86.09057109140021,271,5821,23,5527
38,Bhagalpur,25.28669805,87.13225355111148,710,6504,53,5741
39,Bhojpur,25.25,84.25,189,3841,29,3623
40,Buxar,25.562071500000002,84.01567204651289,189,3176,10,2977
41,Darbhanga,26.08314325,86.03257096612822,373,2749,20,2356
42,East Champaran,26.6460551,84.9135447,548,5740,33,5159
43,Gaya,24.7964355,85.0079563,385,5094,44,4665
44,Gopalganj,26.4207265,84.37406407415165,550,3450,2,2898
45,Jamui,24.967852049999998,86.17351147289283,186,1840,6,1648
46,Jehanabad,25.15247135,85.00687848982191,239,2648,8,2401
47,Kaimur,24.974864349999997,83.57643904700731,130,1445,9,1306
48,Katihar,25.560900349999997,87.64765353997149,429,5139,9,4701
49,Khagaria,25.4916868,86.69910848212217,119,2457,9,2329
50,Kishanganj,26.29863795,87.95314810923409,305,2555,6,2244
51,Lakhisarai,25.167702900000002,86.05935924304018,310,2158,6,1842
52,Madhepura,25.9259562,86.82042961035677,362,2579,9,2208
53,Madhubani,26.350071999999997,86.22914688962271,519,5332,12,4801
54,Munger,25.22081165,86.51720367235285,163,2583,36,2384
55,Muzaffarpur,26.1486581,85.34001282479626,705,6954,29,6220
56,Nalanda,25.1364914,85.44365464855682,376,5056,37,4643
57,Nawada,24.818123999999997,85.5185562336921,258,2433,16,2159
58,Patna,25.6093239,85.1235252,1904,23817,184,21729
59,Purnia,25.7773601,87.4731227,697,4986,5,4284
60,Rohtas,24.93928775,84.01945448852067,287,4784,33,4464
61,Saharsa,25.83264165,86.61489283342814,469,3964,6,3489
62,Samastipur,25.7744929,85.86626813370123,328,3797,26,3443
63,Saran,25.90835495,84.78074760594323,490,4896,26,4380
64,Sheikhpura,25.12635425,85.81510620944194,168,1971,5,1798
65,Sheohar,26.49436945,85.27280559513999,116,923,1,806
66,Sitamarhi,26.5876547,85.5056744,275,3076,10,2791
67,Siwan,26.1310043,84.39125660595198,264,3290,19,3007
68,Supaul,23.7337,69.8597,410,3037,8,2619
69,Vaishali,25.75,85.416667,223,3760,27,3509
70,West Champaran,26.6919717,84.5796928,456,4152,16,3680
71,Chandigarh,30.7194022,76.7646552,2586,7542,89,4864
72,Balod,20.73218365,81.14335738365043,535,940,1,404
73,Baloda Bazar,21.572645950000002,82.43670691696435,513,1439,11,915
74,Balrampur,27.4504805,82.39541774073132,198,537,1,338
76,Bastar,19.11912825,81.82918648971713,554,1327,5,768
77,Bijapur,18.769041350000002,80.74151192966231,341,840,6,493
78,Bilaspur,28.8680526,79.29838501460121,2486,4015,56,1473
80,Dhamtari,20.7083903,81.5485253,435,819,2,382
81,Durg,21.19903535,81.3979545573657,3181,5822,50,2591
82,Gariaband,20.42857015,82.24698984817437,227,634,6,401
83,Janjgir Champa,21.967126399999998,82.6647242496104,981,2130,13,1136
84,Jashpur,22.76678355,83.95304518953317,216,682,2,464
86,Kondagaon,19.5885769,81.6628742,257,587,1,329
87,Korba,22.51976955,82.62951462416818,449,1353,5,899
88,Koriya,23.431414349999997,82.31393341197054,386,767,7,374
89,Mahasamund,21.1882332,82.48484762499999,726,1176,15,435
90,Mungeli,22.0661098,81.6874282,250,566,0,316
91,Narayanpur,26.96392335,93.82558573585581,145,733,0,588
92,Raigarh,22.5,83.5,1489,3207,24,1694
93,Raipur,21.2379469,81.6336833,12557,20465,239,7669
94,Rajnandgaon,20.9727404,80.69155548263583,2391,4499,32,2076
95,Sukma,18.26654225,81.29252341475065,300,852,2,550
96,Surajpur,23.35151515,82.97290272665015,380,714,4,330
97,Surguja,22.94941835,83.1655491457949,461,1191,8,722
98,Uttar Bastar Kanker,20.1270026,80.98109349472911,362,970,5,603
99,Gaurela Pendra Marwahi,23.0043821,82.0572281,49,87,0,38
100,Central Delhi,28.69854835,77.21939141568413,184,184,0,0
101,East Delhi,28.6204767,77.30918071344418,38,38,0,0
102,New Delhi,28.6138954,77.2090057,37,37,0,0
103,North Delhi,28.6138954,77.2090057,60,60,0,0
104,North East Delhi,28.72330795,77.26685650778668,25,25,0,0
105,North West Delhi,28.6138954,77.2090057,31,32,1,0
106,Shahdara,28.6733333,77.2890248,48,48,0,0
107,South Delhi,28.485169399999997,77.19637972381611,70,70,0,0
108,South East Delhi,28.5444411,77.27287301731174,130,130,0,0
109,South West Delhi,28.58644805,76.97915298462692,42,42,0,0
110,West Delhi,28.6479519,77.08556541088615,122,122,0,0
111,Dadra and Nagar Haveli,20.2735169,73.0043578,154,1295,1,1135
112,Daman,20.42000485,72.86376290300566,71,1132,1,1047
113,Diu,20.7137783,70.9853635,26,260,0,223
114,North Goa,15.60444125,74.00172406307475,1639,2668,65,964
115,South Goa,15.21961365,74.1152813019196,1978,3511,126,1407
116,Ahmedabad,23.0216238,72.5797068,4212,33378,1751,27415
117,Amreli,20.866667,70.75,383,1586,23,1180
118,Anand,22.5584995,72.9625629,81,916,16,819
119,Aravalli,16.6299629,81.6057455,111,487,24,352
120,Banaskantha,24.172056,72.431134,6,1349,20,1323
121,Bharuch,21.75,73.0,264,1818,14,1540
122,Bhavnagar,21.7718836,72.1416449,391,3362,47,2924
123,Botad,22.1686,71.6685,129,593,5,459
124,Chhota Udaipur,22.3048651,74.0126114,87,406,2,317
125,Dahod,22.8358542,74.2556782,339,1389,6,1044
126,Dang,20.8254,73.7007,26,78,0,52
127,Devbhumi Dwarka,22.2471009,68.9742446,71,404,4,329
128,Gandhinagar,23.2232877,72.6492267,444,2845,62,2339
129,Gir Somnath,20.8907001,70.4025266,170,1135,15,950
130,Jamnagar,22.4732415,70.0552102,333,3923,29,3561
131,Junagadh,21.5174104,70.4642754,275,2116,29,1812
132,Kheda,22.75,72.833333,69,1078,16,993
133,Kutch,23.7337,69.8597,369,1557,31,1157
134,Mahisagar,23.1916967,73.6626352964019,90,719,3,626
135,Mehsana,23.588,72.3693,573,1856,29,1254
136,Morbi,22.8176662,70.8345928,277,1207,15,915
137,Narmada,22.6737188,77.5795269,105,750,0,645
138,Navsari,20.952407,72.9323831,112,1015,6,897
139,Panchmahal,28.6271026,77.31016493548915,375,1795,17,1403
140,Patan,23.77405735,71.68373465668734,123,1270,39,1108
141,Porbandar,21.6409,69.611,17,364,4,343
142,Rajkot,22.3051991,70.8028335,2041,6400,110,4249
143,Sabarkantha,24.0294885,73.0459884,177,842,10,655
144,Surat,21.1702,72.8311,2609,23707,681,20417
145,Surendranagar,22.75,71.666667,399,1391,11,981
146,Tapi,21.1787195,75.44245,12,435,4,419
147,Vadodara,22.2973142,73.1942567,1438,9571,145,7988
148,Valsad,20.4324018,73.1411715553577,80,1067,10,977
149,Bilaspur,28.8680526,79.29838501460121,148,461,1,312
150,Chamba,32.5534,76.1258,183,618,5,426
151,Hamirpur,25.75,80.0,164,728,5,559
152,Kangra,32.166667,76.25,495,1346,14,837
153,Kinnaur,31.586346,78.3968441,40,116,0,76
154,Kullu,32.00186325,77.37899639741332,124,381,1,256
155,Lahaul and Spiti,32.5038495,77.58227188236428,12,19,0,7
156,Mandi,33.868829899999994,74.31880472886633,278,672,8,386
157,Shimla,31.1041526,77.1709729,202,540,11,320
158,Sirmaur,30.75,77.5,281,1147,4,862
159,Solan,30.92589585,77.08200509063624,675,2011,15,1318
160,Una,31.4685,76.2708,274,745,6,465
161,Ambala,30.3843674,76.770421,1152,5641,57,4432
162,Bhiwani,28.7931703,76.1391283,337,1927,19,1571
163,Charkhi Dadri,28.5919933,76.2719817,98,351,1,252
164,Faridabad,28.402837,77.3085626,1767,15562,188,13607
165,Fatehabad,27.02766825,78.2074341134146,535,1475,21,919
166,Gurugram,28.4646148,77.0299194,2167,14924,145,12612
167,Hisar,29.168807,75.7461103,904,3610,30,2676
169,Jhajjar,28.5336844,76.68981212035648,463,1845,19,1363
170,Jind,29.5,76.25,550,1253,12,691
171,Kaithal,29.74477075,76.35092772284784,502,1722,21,1199
172,Karnal,29.6803266,76.9896254,1743,5165,65,3357
173,Kurukshetra,29.9693747,76.8482787,1574,3470,61,1835
174,Mahendragarh,28.25,76.166667,532,2451,3,1916
175,Nuh,28.097345150000002,77.05085582101852,164,954,16,774
176,Palwal,28.12502575,77.35831300773046,173,1903,14,1716
177,Panchkula,30.616216450000003,77.04197804321875,1284,3990,41,2665
178,Panipat,29.3912753,76.9771675,1737,5586,59,3790
179,Rewari,28.1956468,76.6165179,623,4429,26,3780
180,Rohtak,28.9010899,76.5801935,850,3978,44,3084
181,Sirsa,29.583333,75.083333,843,2308,33,1432
182,Sonipat,29.0033144,77.0167323,837,5830,41,4952
183,Yamunanagar,30.2112003,77.28638972360895,611,2741,40,2090
184,Bokaro,23.699127949999998,85.99106894165021,559,2849,17,2273
185,Chatra,24.20162495,84.87817691941733,297,998,5,696
186,Deoghar,24.4766423,86.60673245386945,253,1715,14,1448
187,Dhanbad,23.7952809,86.4309638,752,3747,43,2952
188,Dumka,24.2538512,87.30064714192224,209,788,5,574
189,East Singhbhum,22.5,85.5,3173,10275,238,6864
190,Garhwa,24.15529035,83.82522584408349,131,1461,7,1323
191,Giridih,24.25,85.916667,305,2504,9,2190
192,Godda,24.74334305,87.29285061796858,84,977,4,889
193,Gumla,23.0916741,84.5738480719802,352,1170,2,816
194,Hazaribagh,23.9675151,85.43884568595615,772,2541,20,1749
195,Jamtara,23.9232867,86.77353493891458,49,532,1,482
196,Khunti,23.10018105,85.3454593617985,327,1073,3,743
197,Koderma,24.4931239,85.55608107203881,685,2112,17,1410
198,Latehar,23.74186545,84.51301366522105,253,1161,1,907
199,Lohardaga,23.46920055,84.73568423071751,132,756,5,619
200,Pakur,24.6379064,87.8556962,72,573,1,500
201,Palamu,23.916667,84.083333,175,1995,7,1813
202,Ramgarh,24.517725249999998,87.26258572061664,1003,2741,13,1725
203,Ranchi,23.3700354,85.3250132,3676,12562,85,8801
204,Sahibganj,25.2820998,87.61850784289338,215,994,9,770
205,Saraikela-Kharsawan,22.7464225,85.91689291046393,948,1957,6,1003
206,Simdega,22.6664325,84.5502679119221,319,1282,4,959
207,West Singhbhum,22.5,85.5,439,2277,16,1822
208,Anantnag,33.746109950000005,75.18544753143254,676,2848,53,2119
209,Bandipora,34.4563234,74.68249997667994,796,2710,28,1886
210,Baramulla,34.205005650000004,74.36221081111597,873,3399,112,2414
211,Budgam,34.04796585,74.7441397838328,1226,3580,70,2284
212,Doda,33.1774307,75.56752281893789,329,732,9,394
213,Ganderbal,34.2880611,75.03058171219789,539,2025,25,1461
214,Jammu,32.7185614,74.8580917,5258,7947,85,2604
215,Kathua,32.583333,75.5,404,1285,11,870
216,Kishtwar,33.2761171,75.8169238781403,310,565,1,254
217,Kulgam,33.669800550000005,75.01480232217389,126,2069,40,1903
218,Kupwara,34.611023599999996,74.238478667319,940,2784,56,1788
219,Mirpur,33.1486351,73.7482102,0,0,0,0
220,Muzaffarabad,34.3734751,73.4702407,0,0,0,0
221,Pulwama,33.89829355,74.89634093792017,439,3119,60,2620
222,Punch,33.702939,74.24990151547188,415,821,6,400
223,Rajouri,33.3772495,74.3132332,521,1364,15,828
224,Ramban,33.211637100000004,75.20509890752818,140,794,1,653
225,Reasi,33.069103150000004,74.8378698208889,212,570,3,355
226,Samba,32.553,75.1108,409,1037,8,620
228,Srinagar,34.0747444,74.8204443,1921,11498,248,9329
229,Udhampur,33.0,75.166667,579,1398,4,815
230,Bagalkote,16.1853166,75.6967919,1223,8058,85,6750
231,Ballari,15.2485413,76.8323648,4492,26152,338,21322
232,Belagavi,15.8572666,74.5069343,3131,16051,237,12683
233,Bengaluru Rural,13.18077825,77.34174236923371,1387,6359,56,4916
234,Bengaluru Urban,12.94514225,77.55364499971128,40929,167183,2391,123862
235,Bidar,17.9104,77.5199,577,5362,143,4638
236,Chamarajanagara,11.9238058,76.9393558,360,2942,52,2519
237,Chikkaballapura,13.4358702,77.7312434,1003,5601,70,4527
238,Chikkamagaluru,13.5,75.5,1451,5900,98,4351
239,Chitradurga,14.2266443,76.4005122,1188,4702,33,3481
240,Dakshina Kannada,12.82225975,75.22560110530964,3705,16959,437,12815
241,Davanagere,14.4661266,75.9206361,2557,12753,225,9971
242,Dharwad,15.4540505,75.0066516,2349,14309,415,11545
243,Gadag,15.4263647,75.6300786,1177,7359,105,6077
244,Hassan,13.0070817,76.0992703,2834,11530,231,8465
245,Haveri,14.7874825,75.3996731,1551,6402,126,4725
246,Kalaburagi,17.166667,77.083333,2318,14217,242,11657
247,Kodagu,12.3822808,75.66523533586208,310,1908,26,1572
248,Kolar,13.1369996,78.1339606,756,4409,73,3580
249,Koppal,15.3484144,76.1547421,1746,8802,186,6870
250,Mandya,12.5238888,76.8961961,2215,8015,86,5714
251,Mysuru,12.3051828,76.6553609,7020,25086,576,17490
252,Raichur,16.083333,77.166667,1563,9227,119,7545
253,Ramanagara,12.7252766,77.2804797,622,4180,38,3520
254,Shivamogga,13.9311723,75.569737,3094,11917,197,8626
255,Tumakuru,13.3400771,77.1006208,2428,8892,185,6279
256,Udupi,13.3419169,74.7473232,1902,13920,129,11889
257,Uttara Kannada,14.724474149999999,74.64223734496612,1880,6812,80,4852
258,Vijayapura,16.666667,75.916667,632,7720,133,6955
259,Yadgir,16.7689044,77.1380381,1415,6788,46,5327
260,Alappuzha,9.48870715,76.41521381074048,1912,7508,18,5572
261,Ernakulam,9.9825665,76.2990313,2913,8609,45,5643
262,Idukki,9.8497872,76.9797914,424,2147,3,1719
263,Kannur,11.8762254,75.3738043,1858,5625,36,3729
264,Kasaragod,12.421713050000001,75.19044977266321,2109,6919,37,4770
265,Kollam,8.8879509,76.5955013,2134,6450,26,4287
266,Kottayam,9.6287383,76.64553257124857,2081,5832,3,3748
267,Kozhikode,11.2586082,75.7788735,2065,7943,39,5834
268,Malappuram,11.10684475,76.10995510466662,2674,12047,34,9333
269,Palakkad,10.7691989,76.6512469,1155,5891,5,4729
270,Pathanamthitta,9.27854005,76.97405942942743,1232,4596,3,3359
271,Thiruvananthapuram,8.5241122,76.9360573,4846,20312,134,15308
272,Thrissur,10.5256264,76.2132542,2026,6419,23,4366
273,Wayanad,11.715219000000001,76.12690294658198,449,1957,5,1503
274,Kargil,34.420542600000005,75.6467756307598,351,1427,23,1053
275,Leh,34.1642029,77.5848133,452,1801,15,1334
276,Lakshadweep,10.8832771,72.8171069,0,0,0,0
277,Ahmednagar,19.162772500000003,74.85802430085195,6006,27591,406,21179
278,Akola,20.7618624,77.19217162524623,1537,5062,170,3354
279,Amravati,21.15454115,77.64429617998744,2452,7717,168,5097
280,Aurangabad,19.877263,75.3390241,6524,28328,741,21063
281,Beed,18.9904059,75.7542291,2007,6494,182,4305
282,Bhandara,27.604285400000002,84.64526207773613,1617,2646,31,998
283,Buldhana,20.583333,76.416667,1607,4901,92,3202
284,Chandrapur,26.21231825,91.89620684881584,2624,5003,52,2327
285,Dhule,21.13050145,74.47891180551228,2621,10515,273,7619
286,Gadchiroli,19.759070350000002,80.16228072580182,237,1129,1,891
287,Gondia,21.455228,80.1962729,1449,2908,30,1429
288,Hingoli,19.54140965,77.17376601317515,507,1980,44,1429
289,Jalgaon,20.84351185,75.52592658756026,9078,35511,1003,25430
290,Jalna,19.9182328,75.8686246900443,1878,5760,167,3715
291,Kolhapur,16.7028412,74.2405329,9431,31399,891,21077
292,Latur,18.35146855,76.7551212230513,4306,11814,341,7167
293,Mumbai,18.9387711,72.8353355,27642,165306,8067,129244
294,Mumbai Suburban,19.13095765,72.88593095460952,0,0,0,0
295,Nagpur,21.1498134,79.0820556,20917,47004,1243,24840
296,Nanded,19.17257215,77.29141237169956,5670,10958,285,5003
297,Nandurbar,21.365998949999998,74.28400358178766,1050,3694,97,2547
298,Nashik,20.0112475,73.7902364,11043,52049,1033,39973
299,Osmanabad,18.16984395,76.11796321159572,2398,8253,223,5632
300,Palghar,19.68086385,72.82537342511341,5126,29930,699,24105
301,Parbhani,19.29031365,76.60290343431203,1447,3929,120,2362
302,Pune,18.6452489,73.92318563785392,72835,223710,4693,146182
303,Raigad,18.4928092,73.13807095426539,10047,39469,906,28514
304,Ratnagiri,17.282607900000002,73.4569787039826,2326,5812,180,3306
305,Sangli,16.8502534,74.5948885,9098,22899,684,13117
306,Satara,17.63612885,74.29827807601782,8073,22572,559,13938
307,Sindhudurg,16.135719299999998,73.65220860183584,1199,2221,33,989
308,Solapur,17.84990665,75.27632027348457,6448,25807,918,18440
309,Thane,19.1943294,72.9701779,28688,152934,4118,120127
310,Wardha,20.82562315,78.61314549522919,1072,2064,24,967
311,Washim,20.28792095,77.23606281061035,602,2548,46,1899
312,Yavatmal,20.15,78.35,1508,4743,107,3128
313,East Garo Hills,25.61849455,90.63421621777749,23,103,0,80
314,East Jaintia Hills,25.25157605,92.48405006942016,112,147,0,35
315,East Khasi Hills,25.405680850000003,91.83546771298455,899,2026,15,1112
316,North Garo Hills,25.8619841,90.70177048839348,9,28,0,19
318,South Garo Hills,25.347969,90.56577725964563,20,37,0,17
319,South West Garo Hills,25.448052699999998,89.9987852968616,6,20,0,14
320,South West Khasi Hills,25.330722100000003,91.32645013786319,1,2,0,1
321,West Garo Hills,25.60780175,90.20380106122235,193,530,1,336
322,West Jaintia Hills,25.4425965,92.29882747091773,12,39,0,27
323,West Khasi Hills,25.58173695,91.28910306371017,32,62,1,29
324,Bishnupur,24.562463649999998,93.8012483746545,228,288,2,58
325,Chandel,24.3197442,94.02109882254321,105,113,4,4
326,Churachandpur,24.378704,93.69700149533944,391,451,2,58
327,Imphal East,24.85154025,94.00947957721581,750,777,11,16
328,Imphal West,24.757326,93.85847858025147,1865,1925,8,52
329,Jiribam,24.6778472,93.1549000879473,145,147,0,2
330,Kakching,24.38904015,93.88013239529906,196,223,0,27
331,Kamjong,24.8409769,94.52830740954334,142,159,0,17
332,Kangpokpi,25.1524326,93.9714932,324,345,2,19
333,Noney,24.8625867,93.6237454,53,71,0,18
334,Pherzawl,24.2595653,93.1906004,18,33,0,15
335,Senapati,25.380439600000003,94.0569854178655,251,272,0,21
336,Tamenglong,24.935401300000002,93.56791112289724,234,266,0,32
337,Tengnoupal,24.31392145,94.23756082375633,69,82,0,13
338,Thoubal,24.624587,94.04247928402684,765,801,13,23
339,Ukhrul,25.109266849999997,94.38239281654197,290,308,0,18
340,Agar Malwa,23.9342963,76.14523314122312,64,285,6,215
341,Alirajpur,22.285939550000002,74.35468608752092,234,822,8,580
342,Anuppur,23.03525965,81.3884438474638,42,515,5,468
343,Ashoknagar,24.576189,77.7302895,90,310,12,208
344,Balaghat,21.966667,80.333333,204,508,1,303
345,Barwani,21.75194325,74.89175175338488,170,1367,16,1181
346,Betul,21.8796162,77.87568124563079,296,1014,20,698
347,Bhind,26.5,78.75,59,693,5,629
348,Bhopal,23.2584857,77.401989,1814,12681,319,10548
349,Burhanpur,26.2697215,82.99442536730413,42,608,25,541
350,Chhatarpur,24.75,79.75,107,796,19,670
351,Chhindwara,22.139831049999998,78.80964495467987,173,649,13,463
352,Damoh,23.75,79.583333,305,960,20,635
353,Datia,25.75,78.5,143,909,10,756
354,Dewas,23.0,76.166667,144,898,17,737
355,Dhar,22.5,75.25,356,1270,18,896
356,Dindori,20.25527235,73.80730056332233,94,249,0,155
357,Guna,24.5,77.5,132,438,10,296
358,Gwalior,26.2037247,78.1573628,1987,7277,79,5211
359,Harda,22.3388828,77.0929933,108,584,13,463
360,Hoshangabad,22.6001502,77.92664521413192,277,823,23,523
361,Indore,22.7203616,75.8681996,4555,16090,444,11091
362,Jabalpur,23.1608938,79.9497702,1289,5853,106,4458
363,Jhabua,22.88585225,74.72513368804519,208,906,8,690
364,Katni,23.8339621,80.392456,98,593,11,484
365,Khandwa,21.9778642,76.5688282326971,198,1139,26,915
366,Khargone,21.8187743,75.6064577,511,2188,33,1644
367,Mandla,22.68536625,80.58150561711888,158,360,5,197
368,Mandsaur,24.2651306,75.38718193725012,204,1102,14,884
369,Morena,26.166667,77.5,131,2227,15,2081
370,Narsinghpur,22.9467047,79.1980228,377,888,6,505
371,Neemuch,24.63044655,75.18339614635457,324,1469,19,1126
372,Niwari,25.312470400000002,78.66785016924982,59,246,1,186
373,Panna,24.5,80.25,43,331,1,287
374,Raisen,23.25,78.083333,204,913,17,692
375,Rajgarh,23.87167135,76.7748902040889,163,997,15,819
376,Ratlam,23.501957750000003,74.95284518680097,287,1414,28,1099
377,Rewa,24.75926685,81.65500021078341,336,1043,15,692
378,Sagar,23.80961225,78.75911360578634,315,1464,69,1080
379,Satna,24.5,81.0,173,797,21,603
380,Sehore,23.1156882,77.06623939176504,346,994,22,626
381,Seoni,22.275878900000002,79.721044651047,106,376,6,264
382,Shahdol,23.3002343,81.364771,187,800,9,604
383,Shajapur,23.37074105,76.62051527475785,144,606,8,454
384,Sheopur,25.6656611,76.6954843,157,649,4,488
385,Shivpuri,25.37524125,77.82811932629714,473,1507,14,1020
386,Sidhi,24.25,82.0,188,483,2,293
387,Singrauli,24.1974432,82.6661453,102,446,8,336
388,Tikamgarh,24.85450275,79.04698123882801,100,535,15,420
389,Ujjain,23.174597,75.7851423,400,2146,83,1663
390,Umaria,23.64319305,80.94239522009255,67,202,2,133
391,Vidisha,23.916667,78.0,248,1199,25,926
392,Aizawl,23.7414092,92.7209297,412,905,0,493
393,Champhai,23.69082385,93.34839119913778,2,17,0,15
394,Hnahthial,22.9663656,93.01026448504744,2,2,0,0
395,Khawzawl,23.53892045,93.1586839061471,0,3,0,3
396,Kolasib,24.18947525,92.7133181281124,103,203,0,100
397,Lawngtlai,22.34596495,92.8119536068969,4,33,0,29
398,Lunglei,22.898553,92.75192291719874,6,124,0,118
399,Mamit,23.75590845,92.45173568830637,12,33,0,21
400,Saiha,22.4995518,92.97798988717027,4,31,0,27
401,Saitual,23.6929995,92.965428,5,9,0,4
402,Serchhip,23.385892300000002,92.930598908176,6,19,0,13
404,Dimapur,25.9135914,93.7283707,736,2489,8,1740
405,Kiphire,25.81551155,94.84166400470303,11,16,0,5
406,Kohima,25.75,94.166667,409,1533,0,1120
407,Longleng,26.49031725,94.77214247303138,0,7,0,6
408,Mokokchung,26.4795861,94.51052754768273,15,37,0,22
409,Mon,26.8038,94.9767,24,325,0,298
410,Peren,25.47907705,93.72563659313207,3,350,0,347
411,Phek,25.75,94.5,1,34,0,33
412,Tuensang,26.168505500000002,94.85819821659115,16,73,0,57
413,Wokha,26.166667,94.25,2,35,0,33
414,Zunheboto,26.0,94.5,4,119,0,115
415,Angul,20.8382426,85.0973949,834,1799,4,961
416,Balangir,20.75,83.25,836,2727,10,1881
417,Balasore,21.5002888,86.9202627,1071,5040,19,3950
418,Bargarh,21.3474637,83.65427922282043,1773,4177,9,2395
419,Bhadrak,21.0633288,86.5053731,837,3764,14,2913
420,Boudh,20.8415619,84.3213321,353,1032,0,679
421,Cuttack,20.4686,85.8792,3497,12633,49,9087
422,Deogarh,21.5370786,84.7301184,115,358,0,243
423,Dhenkanal,20.75,85.5,517,2465,2,1946
424,Gajapati,19.19557415,84.19297736346317,218,3136,19,2899
425,Ganjam,19.5,84.5,542,19125,222,18361
426,Jagatsinghpur,20.2593872,86.1660878,898,2888,6,1984
427,Jajpur,20.8522696,86.3385714,1476,5606,8,4122
428,Jharsuguda,21.87705125,84.00905063735019,752,2346,1,1593
429,Kalahandi,19.75,83.0,535,1917,4,1378
430,Kandhamal,20.13069385,84.07904760590154,442,2758,15,2301
431,Kendrapara,20.50040085,86.43170622796478,948,2935,4,1983
432,Kendujhar,21.5892323,85.66878413736906,558,2789,10,2221
433,Khordha,20.22564715,85.56059465125232,7128,25440,99,18213
434,Koraput,18.7232023,82.60811827787269,802,4659,7,3850
435,Malkangiri,18.35835435,81.89823748747048,226,2720,11,2483
436,Mayurbhanj,21.75,86.5,1404,5471,12,4055
437,Nabarangapur,19.60962325,82.29876854111501,753,2016,4,1259
438,Nayagarh,20.1160666,85.11195643843573,593,3737,18,3126
439,Nuapada,20.769099750000002,82.51862845874122,732,1367,0,635
440,Puri,19.8076083,85.8252538,1954,6075,28,4093
441,Rayagada,18.965998550000002,84.19287455014992,820,5988,33,5135
442,Sambalpur,21.4,83.883333,815,3846,16,3015
443,Subarnapur,27.2274941,84.71486464642322,890,1652,3,759
444,Sundargarh,22.25,84.5,914,5498,42,4542
445,Amritsar,31.6343083,74.8736788,1416,6026,231,4379
446,Barnala,30.3704685,75.504017418548,450,1424,26,948
447,Bathinda,30.17911535,75.04710156312628,1284,3745,65,2396
448,Faridkot,30.60092505,74.79477422840449,649,1826,30,1147
449,Fatehgarh Sahib,30.6600764,76.38002163710028,169,1339,50,1120
450,Fazilka,30.336099599999997,74.11794319222481,415,1327,20,892
451,Ferozepur,30.6839733,76.3594033,530,2306,60,1716
452,Gurdaspur,31.904229899999997,75.22738141098935,1350,3789,78,2361
453,Hoshiarpur,31.60857425,75.84644246890946,899,2684,77,1708
454,Jalandhar,31.29201065,75.56805772253911,3244,9114,238,5632
455,Kapurthala,31.38524095,75.30552273989395,565,1946,86,1295
456,Ludhiana,30.9090157,75.851601,1804,12995,558,10633
457,Mansa,29.8769971,75.4889866137018,367,964,15,582
458,Moga,30.7839866,75.16057422541162,485,1783,47,1251
459,Pathankot,32.301710400000005,75.65864246622084,677,2026,33,1316
460,Patiala,30.2090874,76.3398720856221,1435,8046,229,6382
461,Rupnagar,31.09168085,76.5272673916138,308,1214,36,870
462,S.A.S. Nagar,30.8823935,75.8703501,1604,5811,133,4074
463,Sangrur,30.2093363,75.8184224340909,373,2667,109,2185
465,Sri Muktsar Sahib,30.4692,74.5182,549,1545,20,976
466,Tarn Taran,31.32124525,74.84130629340785,373,1120,43,704
467,Karaikal,10.91571,79.8375761,287,1222,20,915
468,Mahe,11.7003,75.5425,45,102,0,57
469,Puducherry,11.9340568,79.8306447,4237,16487,311,11939
470,Yanam,16.7333666,82.2145164,309,1215,34,872
471,Ajmer,26.4691,74.639,382,5063,82,4599
472,Alwar,27.639077049999997,76.6144524902045,676,8797,31,8090
473,Banswara,23.4930788,74.34840231310622,159,826,7,660
474,Baran,24.9171512,76.69640322489136,268,971,13,690
475,Barmer,25.5819034,71.61966242777196,123,2455,24,2308
476,Bharatpur,27.26521245,77.36912554739122,161,3894,73,3660
477,Bhilwara,25.48877345,74.69961283584024,355,2471,16,2100
478,Bikaner,28.0159286,73.3171367,288,5146,89,4769
479,BSF Camp,23.2200507,69.6614313,0,85,0,85
480,Bundi,25.5,75.833333,368,902,4,530
481,Chittorgarh,24.718026000000002,74.47214697200876,216,1226,10,1000
482,Churu,28.2061443,74.69190729963461,188,1197,7,1002
483,Dausa,26.80486585,76.44374569929329,92,672,9,571
484,Dholpur,26.7009896,77.8967857,176,2498,23,2299
485,Dungarpur,23.666667,73.75,170,1259,12,1077
487,Ganganagar,23.7497214,91.87663495294915,172,861,9,680
488,Hanumangarh,29.367200150000002,74.29836365065901,84,536,2,450
490,Jaipur,26.916194,75.820349,5128,14322,295,8899
491,Jaisalmer,27.02801615,70.7785056232077,141,528,5,382
492,Jalore,25.3476006,72.6260916,118,1463,13,1332
493,Jhalawar,24.3132368,76.52223626123003,359,2067,6,1702
494,Jhunjhunu,28.1287995,75.3992581,129,1213,6,1078
495,Jodhpur,26.2967719,73.0351433,1984,14532,117,12431
496,Karauli,26.51668105,77.05772976517363,113,678,7,558
497,Kota,25.1968256,76.00089330885552,2532,7219,87,4600
498,Nagaur,27.0607859,74.17667537582712,213,2744,44,2487
499,Pali,25.6040908,73.41560878556902,172,4492,48,4272
500,Pratapgarh,25.75,81.75,167,574,7,400
501,Rajsamand,25.29131615,73.8244924740361,192,1409,18,1199
502,Sawai Madhopur,26.22914115,76.30453277017932,150,667,17,500
503,Sikar,27.662826000000003,75.02792628691331,170,3035,23,2842
504,Sirohi,24.811404699999997,72.83002573160249,96,1494,18,1380
505,Tonk,26.12214725,75.66375373932236,112,806,13,681
506,Udaipur,24.578721,73.6862571,179,2682,33,2470
507,East Sikkim,27.601029,88.45413638680145,337,1446,3,1106
508,North Sikkim,27.601029,88.45413638680145,0,1,0,1
509,South Sikkim,27.601029,88.45413638680145,402,475,0,73
510,West Sikkim,27.601029,88.45413638680145,72,87,0,15
511,Adilabad,19.5,78.5,1252,1267,0,15
512,Bhadradri Kothagudem,17.71534525,80.57149761778712,2725,2729,0,4
513,Hyderabad,17.38878595,78.46106473453146,55126,55454,23,305
514,Jagtial,18.82135895,78.91506632525903,2851,2853,0,2
515,Jangaon,17.7265463,79.25901524867399,1739,1740,0,1
516,Jayashankar Bhupalapally,18.515987199999998,79.96939659792528,948,948,0,0
517,Jogulamba Gadwal,16.0999202,77.73415835077523,2092,2118,1,25
518,Kamareddy,18.316551,78.05393808043348,2890,2898,0,8
519,Karimnagar,18.4346438,79.1322648,6350,6366,0,16
520,Khammam,17.5,80.333333,4411,4414,0,3
522,Mahabubabad,17.7138983,80.04134252767227,2407,2408,0,1
523,Mahabubnagar,16.696568550000002,77.95911462089693,2544,2552,0,8
524,Mancherial,18.8761795,79.4449696,2609,2610,1,0
525,Medak,17.9375095,78.21174498510584,1736,1740,0,4
526,Medchal Malkajgiri,17.53498345,78.52463873502381,8858,8868,1,9
527,Mulugu,18.1932372,79.9413676,970,972,0,2
528,Nagarkurnool,16.415762649999998,78.68304333132829,1902,1904,0,2
529,Nalgonda,16.8579636,79.21749353315548,5081,5093,0,12
530,Narayanpet,16.700551750000002,77.61648447017446,562,563,1,0
531,Nirmal,19.091520950000003,78.39660898429065,1053,1066,0,13
532,Nizamabad,26.055317950000003,82.99313867937335,4483,4513,0,30
533,Peddapalli,18.62065305,79.49501710882896,2974,2975,0,1
534,Rajanna Sircilla,18.452116,78.76455837158737,2224,2226,0,2
535,Ranga Reddy,12.9554461,80.2530374,12744,12763,2,17
536,Sangareddy,17.86859205,77.8228199507381,4079,4085,0,6
537,Siddipet,18.005585099999998,78.89611304969961,3239,3240,0,1
538,Suryapet,17.08001385,79.7925329742427,3206,3230,0,24
539,Vikarabad,17.2702855,77.74529700637382,898,914,1,15
540,Wanaparthy,16.285294399999998,77.98644727021286,1676,1676,0,0
541,Warangal Rural,17.94854255,79.81612399359742,1699,1699,0,0
542,Warangal Urban,18.02625695,79.46444493996634,6062,6085,0,23
543,Yadadri Bhuvanagiri,17.42819665,79.09049097612105,1580,1580,0,0
544,Ariyalur,11.076035950000001,79.11745538182738,261,3260,37,2962
545,Chengalpattu,12.76657415,79.99931906821485,2007,30065,475,27583
546,Chennai,13.0801721,80.2838331,10648,147591,2956,133987
547,Coimbatore,11.0018115,76.9628425,3562,21665,349,17754
548,Cuddalore,11.74269375,79.75030644171935,3136,16023,170,12717
549,Dharmapuri,12.09680475,78.19304301026716,675,1987,19,1293
550,Dindigul,10.3303299,78.0673979084697,791,7796,149,6856
551,Erode,11.369204400000001,77.67662686841793,1006,4409,56,3347
552,Kallakurichi,11.79468465,79.03882106200822,902,7761,87,6772
553,Kancheepuram,12.87960515,79.70427615297989,1230,19235,287,17718
554,Kanyakumari,8.079252,77.5499338,745,10847,206,9896
555,Karur,10.9301522,78.08485454572889,391,2127,31,1705
556,Krishnagiri,12.5188835,78.2206536,808,3107,44,2255
557,Madurai,9.9261153,78.1140983,908,15238,371,13959
558,Nagapattinam,10.805627600000001,79.824659783024,1077,3919,67,2775
559,Namakkal,11.2191319,78.23739801779963,828,3210,50,2332
560,Nilgiris,11.4,76.7,509,2279,17,1753
561,Perambalur,11.2287716,78.81825554962782,97,1521,19,1405
562,Pudukkottai,10.5,78.833333,776,7293,118,6399
563,Ramanathapuram,9.3895523,78.85907071521498,301,5165,113,4751
564,Ranipet,12.9272641,79.3330076,650,11952,143,11159
565,Salem,11.6643,78.146,1920,14180,218,12042
566,Sivaganga,9.851231,78.53047154820716,221,4475,114,4140
567,Tenkasi,9.09407535,77.47583689833286,606,6224,116,5502
568,Thanjavur,10.7860267,79.1381497,815,8192,128,7249
569,Theni,9.969664300000002,77.47420048524822,781,13685,157,12747
570,Thiruvallur,13.13014755,79.92435386254967,1981,28025,470,25574
571,Thiruvarur,10.73618605,79.63318659437627,751,5123,64,4308
572,Thoothukkudi,8.756745200000001,78.07975266019861,694,12251,119,11438
573,Tiruchirappalli,10.804973,78.6870296,899,8753,132,7722
574,Tirunelveli,8.722388,77.710247,1100,11017,193,9724
575,Tirupathur,12.453306399999999,78.55290857022919,485,3631,73,3073
576,Tiruppur,10.791526650000002,77.53254662905589,1529,4446,84,2833
577,Tiruvannamalai,12.22721295,79.07015554906167,1568,12878,192,11118
578,Vellore,12.7948109,79.0006410968549,1071,12543,192,11280
579,Viluppuram,11.9137874,79.50789297942772,885,9312,85,8342
580,Virudhunagar,9.5208936,77.8784563961865,417,13647,202,13028
581,Dhalai,23.8253158,91.9732226716333,844,1881,7,1029
582,Gomati,23.4613369,91.60718003817723,564,2038,20,1453
583,Khowai,24.04673835,91.62320953646798,439,1324,16,869
584,North Tripura,24.092147599999997,92.24512135019847,581,1581,7,987
586,South Tripura,23.5,91.666667,664,1389,9,713
587,Unokoti,24.19098485,92.04604830534434,523,1072,6,543
588,West Tripura,23.916667,91.5,3223,6823,100,3489
589,Agra,27.1752554,78.0098161,815,3934,112,3007
590,Aligarh,27.87698975,78.13729027600994,1633,6197,31,4533
591,Ambedkar Nagar,26.40349795,82.60728148676125,274,1138,23,841
592,Amethi,26.34738315,81.6238783207884,569,1895,12,1314
593,Amroha,28.9233969,78.48831693262684,439,2111,23,1649
594,Auraiya,26.65573395,79.51504701181831,360,1687,18,1309
595,Ayodhya,26.7990707,82.2052321,1154,4577,55,3368
596,Azamgarh,26.02269675,83.02887343114848,527,3739,60,3152
597,Baghpat,28.97240405,77.33315284938224,160,1069,18,891
598,Bahraich,27.7336958,81.47732127661058,416,2543,42,2085
599,Ballia,25.877932549999997,84.11995931460379,759,4814,56,3999
600,Balrampur,27.4504805,82.39541774073132,217,1212,20,975
601,Banda,25.452,80.5438,443,1360,14,903
602,Barabanki,26.93823105,81.38609761204991,1125,4942,42,3775
603,Bareilly,28.457876,79.40557093743058,1906,8304,127,6271
604,Basti,27.25,83.0,440,2895,59,2396
605,Bhadohi,25.422922749999998,82.48843708088575,273,1343,11,1059
606,Bijnor,29.40604895,78.48087839917878,488,2325,26,1811
607,Budaun,28.06831165,79.04607312079293,497,2100,17,1586
608,Bulandshahr,28.38886085,77.97479772598118,520,2870,50,2300
609,Chandauli,25.1265777,83.2496557733391,490,2511,23,1998
610,Chitrakoot,25.2195207,81.102282425,206,930,5,719
611,Deoria,26.42384715,83.76273169028727,944,4933,52,3937
612,Etah,27.5541146,78.60078640304634,383,1315,11,921
613,Etawah,26.718324350000003,79.09025375025163,851,3002,43,2108
614,Farrukhabad,27.43719385,79.48912946503123,396,1684,30,1258
615,Fatehpur,25.8435395,80.91800397088501,424,1736,26,1286
616,Firozabad,27.17736635,78.38991197951182,491,2085,50,1544
617,Gautam Buddha Nagar,28.36760975,77.59740326369902,1990,10006,48,7968
618,Ghaziabad,28.711241,77.4445372,1829,10522,73,8620
619,Ghazipur,25.603508400000003,83.50745404887138,375,3304,33,2896
620,Gonda,27.1096669,81.9183291218813,484,3108,31,2593
621,Gorakhpur,26.67132865,83.36458284327038,2888,12503,176,9439
622,Hamirpur,25.75,80.0,159,823,15,649
623,Hapur,28.740612499999997,77.83542556519009,332,2093,34,1727
624,Hardoi,27.33857665,80.0975264641719,761,3433,45,2627
625,Hathras,27.57324325,78.11173866751716,125,784,7,652
626,Jalaun,26.105546,79.42765264782076,313,1710,16,1381
627,Jaunpur,25.7955927,82.48834097504385,524,4286,56,3706
628,Jhansi,25.531031149999997,78.65268901605349,1007,5558,116,4435
629,Kannauj,26.999697400000002,79.68861212775874,255,1978,17,1706
630,Kanpur Dehat,26.4600465,79.85550999615592,435,1475,14,1026
631,Kanpur Nagar,26.4402119,80.26930513416637,4643,19681,520,14518
632,Kasganj,27.883846050000002,78.63489003747873,272,1146,2,872
633,Kaushambi,25.53609455,81.44672838764605,196,1210,14,1000
634,Kushinagar,26.7438272,83.9162322,757,4043,26,3260
635,Lakhimpur Kheri,27.985060150000002,80.75384538357649,697,3137,38,2402
636,Lalitpur,24.70038485,78.51866758648349,589,1932,25,1318
637,Lucknow,26.8381,80.9346001,9529,38336,506,28301
638,Maharajganj,27.09254225,83.56696261338257,806,3825,47,2972
639,Mahoba,25.36176885,79.70499475331877,145,650,6,499
640,Mainpuri,27.2098219,79.04813700847944,559,2144,36,1549
641,Mathura,27.633333,77.583333,802,3056,58,2196
642,Mau,26.0376878,83.49793418499047,403,1979,18,1558
643,Meerut,28.916667,77.683333,1938,6265,166,4161
644,Mirzapur,24.9356347,82.64770129811649,304,1972,26,1642
645,Moradabad,28.8638424,78.80577833091104,1275,6577,119,5183
646,Muzaffarnagar,29.44800635,77.74068502568672,1071,3181,42,2068
647,Pilibhit,28.495207649999998,80.10754080018077,450,2877,45,2382
648,Pratapgarh,25.75,81.75,750,2658,34,1874
649,Prayagraj,25.4381302,81.8338005,3723,13822,210,9889
650,Rae Bareli,26.25,81.25,603,2086,57,1426
651,Rampur,28.79406825,79.1859304458554,800,4218,34,3384
652,Saharanpur,29.9880774,77.5081299470512,1818,5636,75,3743
653,Sambhal,28.61875255,78.55087405404804,254,1868,33,1581
654,Sant Kabir Nagar,26.7882737,82.9600798,229,2233,28,1976
655,Shahjahanpur,27.912633149999998,79.74656294869826,1060,4394,58,3276
656,Shamli,29.5008816,77.34838258540861,510,1647,12,1125
658,Siddharthnagar,27.2716,82.821,365,2620,27,2228
659,Sitapur,27.5046392,80.82946583420815,693,2864,23,2148
660,Sonbhadra,24.38657525,83.07863061278505,638,2207,17,1552
661,Sultanpur,26.242510850000002,82.29616931685918,538,2607,41,2028
662,Unnao,26.57550365,80.61376177782856,707,2772,55,2010
663,Varanasi,25.3356491,83.0076292,2063,10538,203,8272
664,Almora,29.703094999999998,79.43317023326716,320,851,2,526
665,Bageshwar,30.0086722,79.9302967950447,130,356,1,225
666,Chamoli,30.499632300000002,79.61879245944404,155,498,0,340
667,Champawat,29.23631315,80.10172076512075,250,501,2,249
668,Dehradun,30.3255646,78.0436813,2715,6672,188,3736
669,Haridwar,29.9384473,78.1452985,1681,6150,63,4386
670,Nainital,29.2031392,79.4176945,1126,3805,71,2601
671,Pauri Garhwal,29.84591115,78.70766746320547,480,1038,10,534
672,Pithoragarh,30.12666775,80.48338013734374,163,567,3,401
673,Rudraprayag,30.3009965,79.06287964782695,234,451,1,215
674,Tehri Garhwal,30.5,78.666667,410,1661,2,1249
675,Udham Singh Nagar,29.048098799999998,79.4313133223357,1324,5467,42,4075
676,Uttarkashi,30.9654214,78.63368731187963,306,1204,3,891
677,Alipurduar,26.4851573,89.5246926,556,3154,27,2571
678,Bankura,23.13195425,87.20739720367507,699,3676,26,2951
679,Birbhum,24.0,87.583333,355,2641,19,2267
680,Cooch Behar,26.3223696,89.4592445,576,4099,18,3505
681,Dakshin Dinajpur,25.38703085,88.50471504999999,417,4388,27,3944
682,Darjeeling,27.0383718,88.2617544,679,6017,90,5248
683,Hooghly,22.9052114,88.3760639,1392,9586,164,8030
684,Howrah,22.5736296,88.3251045,849,14872,445,13578
685,Jalpaiguri,26.626483649999997,88.73407701468993,587,4556,38,3931
686,Jhargram,22.3770636,87.04867177362203,62,349,2,285
687,Kalimpong,27.07169,88.4729,72,590,3,515
688,Kolkata,22.54541245,88.3567751581234,4142,45500,1449,39909
689,Malda,25.0057449,88.1398483,344,5442,46,5052
690,Murshidabad,24.1745993,88.2721335,561,4206,50,3595
691,Nadia,23.48454125,88.55676307470536,940,5198,62,4196
692,North 24 Parganas,22.7182799,88.64248090898516,4615,40511,860,35036
693,Paschim Bardhaman,23.64260775,87.16448126068323,1066,5106,44,3996
694,Paschim Medinipur,22.3599134,87.41331447600871,1331,6508,71,5106
695,Purba Bardhaman,23.391717,87.90621212355462,632,3581,24,2925
696,Purba Medinipur,22.06382145,87.74573460267038,1471,8241,83,6687
697,Purulia,23.032189,89.5911025,443,2001,6,1552
698,South 24 Parganas,22.1815262,88.53780483989941,1338,13306,244,11724
699,Uttar Dinajpur,25.8707958,87.96259728449391,334,2738,27,2377
700,North and Middle Andaman,12.61123865,92.83165406414926,0,1,0,1
701,South Andaman,10.7056905,92.48746789633373,19,51,0,32
702,Anantapur,14.6546235,77.55625984224562,4529,48785,400,43856
703,Chittoor,13.1601048,79.15555061803596,8530,48441,520,39391
704,East Godavari,17.233496,81.7225986,12295,75394,449,62650
705,Guntur,16.2915189,80.4541588,7572,44546,459,36515
706,Krishna,16.6691525,80.7190024,3068,20877,342,17467
707,Kurnool,15.8309251,78.0425373,4229,51184,412,46543
708,Prakasam,15.5,79.5,14851,35654,367,20436
709,S.P.S. Nellore,14.4426,79.9865,5237,42530,384,36909
710,Srikakulam,18.32002205,83.91607719937166,6241,31497,284,24972
711,Visakhapatnam,17.7231276,83.3012842,6037,43433,352,37044
712,Vizianagaram,18.1120819,83.4052196224888,9479,27373,192,17702
713,West Godavari,17.0,81.166667,6726,49398,385,42287
714,Y.S.R. Kadapa,14.4752936,78.8216861,6939,35580,300,28341
715,Anjaw,28.1114301,96.82699963398373,30,77,0,47
716,Changlang,27.1398402,95.7382485,91,564,0,473
717,East Kameng,27.3,93.05,21,241,0,220
718,East Siang,28.3,95.15,148,395,1,246
719,Kamle,27.629,84.7645667,0,3,0,3
720,Kra Daadi,27.96354175,93.76656538768381,1,4,0,3
721,Kurung Kumey,27.98636765,93.15783468644102,11,16,0,5
722,Lepa Rada,27.9211266,94.74093620019156,25,74,0,49
723,Lohit,28.035016149999997,96.17135154220676,45,184,0,139
724,Longding,26.879454600000003,95.3155652456941,50,73,0,23
725,Lower Dibang Valley,28.21495625,95.87877403567019,74,120,0,46
726,Lower Siang,27.80069825,94.56502334121075,17,140,0,123
727,Lower Subansiri,27.8,93.6,48,100,0,52
728,Namsai,27.71403055,96.01597093953018,16,211,1,194
729,Pakke Kessang,27.15828555,93.15615024389129,0,28,0,28
730,Papum Pare,27.286366649999998,93.61875168206382,589,2111,4,1518
731,Shi Yomi,28.68516625,94.23678241115617,7,21,0,14
732,Siang,28.477491999999998,94.81655728795752,1,43,0,42
733,Tawang,27.5879186,91.863733,59,211,1,151
734,Tirap,27.03016895,95.49791754505583,89,219,0,130
735,Upper Dibang Valley,28.7,95.7,0,1,0,1
736,Upper Siang,28.73120455,95.03773151350946,28,89,0,61
737,Upper Subansiri,28.3,94.0,36,165,0,129
738,West Kameng,27.4,92.35,84,422,3,335
739,West Siang,28.4,94.55,219,313,0,94
